storenum,opendate,city,state,lat,lon
1,1962-07-01,Rogers,AR,36.342235,-94.07141
2,1964-08-01,Harrison,AR,36.236984,-93.09345
3,1988-04-12,Commerce,GA,34.210423,-83.46842
4,1965-08-01,Siloam Springs,AR,36.179905,-94.50208
5,1972-05-01,Conway,AR,35.075467,-92.43401
7,1967-10-01,North Little Rock,AR,34.813269,-92.30229
8,1967-10-01,Morrilton,AR,35.156491,-92.75858
9,1968-03-01,Sikeston,MO,36.891163,-89.58355
10,1968-07-01,Tahlequah,OK,35.923658,-94.97185
11,1968-03-01,Mountain Home,AR,36.329026,-92.35781
12,1968-07-01,Claremore,OK,36.327143,-95.61192
13,1968-11-01,Carthage,MO,37.168985,-94.31164
14,1969-04-01,Lebanon,MO,37.678528,-92.64733
15,1969-05-01,West Plains,MO,36.719145,-91.87408
16,1969-04-01,Van Buren,AR,35.456536,-94.34581
17,1969-05-01,Neosho,MO,36.86429,-94.39016
18,1969-11-01,Newport,AR,35.586065,-91.24695
19,1990-04-03,Poplar Bluff,MO,36.759357,-90.41689
20,1970-10-01,Clinton,MO,38.364214,-93.76042
21,1970-03-01,St. Robert,MO,37.827415,-92.135741
22,1970-10-01,Pryor,OK,36.294174,-95.30295
23,1970-11-01,Ruston,LA,32.52476,-92.646960000000007
24,1971-04-01,Jacksonville,AR,34.879419,-92.12244
25,1971-02-01,Mexico,MO,39.179316,-91.88404
26,1970-11-01,Leavenworth,KS,39.298776,-94.93555
27,1971-02-01,Salem,MO,37.630896,-91.51423
28,1971-05-01,Miami,OK,36.880746,-94.87142
29,1971-08-01,Jefferson City,MO,38.568287,-92.25329
30,1971-11-01,Dexter,MO,36.784453,-89.97428
31,1971-06-01,Poteau,OK,35.052793,-94.61829
32,1971-06-01,Branson,MO,36.64417,-93.25668
33,1971-06-01,Nashville,AR,33.985613,-93.85214
34,1971-11-01,Nevada,MO,37.838563,-94.35075
35,1971-10-01,Manhattan,KS,39.184986,-96.56932
36,1971-11-01,Paragould,AR,36.065711,-90.5102
37,1971-09-01,Farmington,MO,37.779206,-90.41404
38,1971-12-09,Idabel,OK,33.883578,-94.83154
39,1972-03-01,Fort Scott,KS,37.823295,-94.73389
40,1971-11-01,Moberly,MO,39.420353,-92.4344
41,1972-05-01,Bartlesville,OK,36.733398,-95.92404
42,1973-02-01,Coffeyville,KS,37.041838,-95.61814
43,1972-05-01,Junction City,KS,39.01585,-96.83653
44,1972-02-01,Eldon,MO,38.311355,-92.58395
45,1972-08-01,Jonesboro,AR,35.844795,-90.68443
46,1972-08-01,Bolivar,MO,37.616822,-93.40072
47,1972-07-01,Sallisaw,OK,35.467031,-94.78647
48,1972-11-01,Monett,MO,36.91816,-93.91488
49,1972-10-01,Hugo,OK,34.010943,-95.51651
50,1973-09-01,Vinita,OK,36.631673,-95.17303
51,1973-05-01,Fulton,MO,38.852436,-91.95808
52,1972-07-01,Hot Springs National Park,AR,34.47056,-93.08805
54,1972-06-01,Springdale,AR,36.182407,-94.1082
55,1972-10-01,Booneville,AR,35.105966,-93.97531
56,1973-08-01,Ava,MO,36.921199,-92.66205
57,1972-10-01,Walnut Ridge,AR,36.068015,-90.94429
58,1973-05-01,Russellville,AR,35.308848,-93.10909
59,1972-05-01,Joplin,MO,37.047161,-94.51124
60,1975-03-01,Troy,MO,38.991916,-90.98649
61,1972-11-01,Warrensburg,MO,38.772117,-93.73519
62,1972-11-01,Blytheville,AR,35.925991,-89.91767
63,1973-09-01,Wagoner,OK,35.961019,-95.3611
64,1973-02-01,Brownsville,TN,35.590558,-89.2609
65,1973-07-03,Sullivan,MO,38.200244,-91.14089
66,1973-08-01,Clarksville,AR,35.490105,-93.4851
67,1973-07-01,Mena,AR,34.588479,-94.21567
68,1973-08-01,Wynne,AR,35.229779,-90.83237
69,1973-12-01,Festus,MO,38.187767,-90.4077
70,1974-07-01,West Memphis,AR,35.150009,-90.17636
71,1973-11-01,Pocahontas,AR,36.304912,-91.0141
72,1974-01-01,Pittsburg,KS,37.408511,-94.70414
73,1974-10-01,Sapulpa,OK,35.996582,-96.1194
74,1973-11-01,Osceola,AR,35.696385,-90.02631
75,1984-11-13,Pineville,LA,31.352105,-92.4006
76,1973-11-01,Berryville,AR,36.350821,-93.56324
77,1979-10-30,Taylor,TX,30.574821,-97.40948
78,1973-09-01,Marshfield,MO,37.330958,-92.90929
79,1974-04-01,Joplin,MO,37.09416,-94.50169
80,1973-06-01,Columbia,MO,38.926838,-92.29003
81,1973-06-01,Stilwell,OK,35.815628,-94.65023
82,1974-04-01,Perryville,MO,37.716811,-89.87601
83,1974-08-01,Magnolia,AR,33.249608,-93.20427
84,1974-05-01,Brinkley,AR,34.867846,-91.19271
85,1974-04-01,Benton,AR,34.564734,-92.59562
86,1973-12-01,Springfield,MO,37.257053,-93.29015
87,1974-07-01,Minden,LA,32.631009,-93.28751
88,1974-02-01,Mountain Grove,MO,37.176376,-92.27609
89,1974-02-01,Camdenton,MO,38.032648,-92.78269
90,1974-04-01,Grove,OK,36.599689,-94.76673
91,1974-09-01,Forrest City,AR,35.010683,-90.78048
92,1974-04-01,Aurora,MO,36.918017999999996,-93.71063
93,1974-10-01,Covington,TN,35.560622,-89.64201
94,1974-07-01,Millington,TN,35.347965,-89.90668
95,1974-10-01,Park Hills,MO,37.844197,-90.53
96,1974-10-01,Harrisonville,MO,38.641509,-94.34126
97,1974-11-01,Ripley,AR,35.637993,-89.86859
98,1975-02-01,Bastrop,LA,32.814969,-91.90678
99,1976-02-01,Union,MO,38.434806,-91.00353
100,1974-10-01,Bentonville,AR,36.362525,-94.23308
101,1976-02-01,Rolla,MO,37.94384,-91.77105
102,1974-09-01,Stuttgart,AR,34.479852,-91.53854
103,1975-08-01,Shawnee,OK,35.375188,-96.93162
104,1974-07-01,Milan,TN,35.916722,-88.76628
105,1974-08-01,Corinth,MS,34.928325,-88.52856
106,1974-08-01,Fulton,KY,36.532059,-88.89132
107,1974-10-01,Martin,TN,36.353928,-88.84191
108,1975-02-01,Guthrie,OK,35.857303,-97.43176
109,1975-02-01,Cameron,MO,39.743859,-94.23378
111,1975-11-01,Chanute,KS,37.666078,-95.45681
112,1975-04-01,Starkville,MS,33.450215,-88.82383
113,1975-07-01,Chickasha,OK,35.040526,-97.94723
114,1975-04-01,Booneville,MS,34.653448,-88.53751
115,1976-09-01,West Point,MS,33.619058,-88.64686
116,1975-08-01,Vivian,LA,32.849008,-93.97599
117,1975-06-01,Broken Bow,OK,34.142978,-94.80269
118,1976-04-01,Amory,MS,33.988235,-88.46783
119,1976-03-01,Batesville,AR,35.78108,-91.63835
120,1976-03-01,Humboldt,TN,35.825299,-88.90218
121,1975-09-01,Okmulgee,OK,35.628612,-95.9734
122,1975-11-01,Jackson,MO,37.413716,-89.65428
123,1975-06-01,Seminole,OK,35.249655,-96.65915
124,1975-03-01,Little Rock,AR,34.674192,-92.35557
125,1975-04-01,Fort Smith,AR,35.373791,-94.41371
126,1976-03-01,Little Rock,AR,34.749723,-92.41345
127,1976-02-01,Malvern,AR,34.364093,-92.8146
128,1978-08-01,Jonesboro,AR,35.781707,-90.74506
129,1975-07-01,Ardmore,OK,34.184742,-97.12655
130,1975-07-01,Muskogee,OK,35.719962,-95.33691
131,1975-11-01,Mount Pleasant,TX,33.166739,-94.9814
132,1976-02-01,Kingfisher,OK,35.856216,-97.93743
133,1976-05-01,Ashdown,AR,33.675597,-94.13465
134,1976-08-01,Elk City,OK,35.405935,-99.41658
135,1976-04-01,Chillicothe,MO,39.790132,-93.54803
136,1976-04-01,Blackwell,OK,36.800787,-97.29289
137,1976-10-01,Stillwater,OK,36.149394,-97.05784
138,1977-11-01,Springfield,MO,37.257053,-93.29015
139,1976-07-01,Purcell,OK,35.017656,-97.39646
140,1976-09-01,Lufkin,TX,31.330567,-94.68667
141,1976-05-01,Fort Smith,AR,35.357041,-94.36914
142,1976-05-01,Clarksville,TX,33.626445,-95.03534
143,1976-06-01,Benton,KY,36.854812,-88.33515
144,1976-09-01,Fayetteville,AR,36.096998,-94.2486
145,1976-10-01,Louisiana,MO,39.449012,-91.07518
146,1976-03-01,Gilmer,TX,32.727128,-94.9577
147,1976-07-01,Denison,TX,33.754053,-96.57867
148,1976-06-01,Paris,TX,33.660274,-95.55958
149,1977-03-01,Jonesboro,LA,32.229884,-92.69763
150,1976-10-01,Woodward,OK,36.433665,-99.40838
151,1977-03-01,Mcalester,OK,34.944399,-95.75709
152,1976-12-01,De Soto,MO,38.120303,-90.55426
153,1976-10-01,New Albany,MS,34.489085,-88.99973
155,1977-08-01,Senatobia,MS,34.607602,-89.94635
156,1977-01-01,Caruthersville,MO,36.174029,-89.67548
157,1977-01-01,Searcy,AR,35.239022,-91.73776
158,1977-05-01,Bonham,TX,33.583772,-96.1818
159,1977-03-01,Columbia,MO,38.926838,-92.29003
160,1977-01-01,Ash Flat,AR,36.24564,-91.63703
161,1977-05-01,Huntingdon,TN,35.995802,-88.41385
162,1977-06-01,Anadarko,OK,35.050671,-98.23984
163,1977-02-01,Nacogdoches,TX,31.649582,-94.638278
164,1977-02-01,Pontotoc,MS,34.236312,-89.00425
165,1977-05-01,Henderson,TX,32.104159,-94.85568
166,1977-03-01,Houston,MO,37.316088,-91.95471
167,1977-04-01,Crossett,AR,33.125032,-91.97037
168,1978-02-07,Owasso,OK,36.278298,-95.8305
169,1977-09-01,Lonoke,AR,34.7964,-91.90949
170,1977-10-01,Natchitoches,LA,31.751287,-93.09021
171,1977-11-01,Camden,AR,33.578096,-92.81368
172,1977-07-01,Washington,MO,38.535499,-91.02348
173,1977-10-01,Potosi,MO,37.91496,-90.86797
174,1985-10-15,Cocoa,FL,28.366284,-80.74196
175,1977-11-01,Collierville,TN,35.057224,-89.67417
176,1977-07-01,Ripley,MS,34.739023,-88.92629
177,1977-11-01,Paris,TN,36.300311,-88.32891
178,1977-11-01,Alva,OK,36.804875,-98.69707
179,1977-02-01,Springfield,MO,37.168435,-93.312970000000007
180,1978-03-14,Jacksonville,TX,31.953855,-95.25281
181,1978-08-08,New Boston,TX,33.465282,-94.41954
182,1979-06-01,Greenville,MS,33.380388,-91.05187
183,1977-10-01,Louisville,MS,33.109635,-89.02849
184,1978-02-01,Blue Springs,MO,39.017559,-94.25767
185,1993-07-21,Gainesville,TX,33.627942,-97.13636
186,1977-11-01,El Dorado,KS,37.830417,-96.84294
188,1977-07-01,Cape Girardeau,MO,37.32564,-89.5659
189,1977-07-01,Kirksville,MO,40.183335,-92.58341
190,1977-07-01,Kennett,MO,36.237128,-90.04866
192,1981-09-15,Columbia,TN,35.619784,-87.03565
194,1985-01-22,Baytown,TX,29.74877,-94.94389
195,1977-07-01,Excelsior Springs,MO,39.340332,-94.22601
196,1977-07-01,Carbondale,IL,37.707763,-89.19246
197,1977-07-01,Macomb,IL,40.456986,-90.6681
198,1977-07-01,Salem,IL,38.623789,-88.95361
199,1977-07-01,Lincoln,IL,40.149927,-89.36746
200,1977-07-01,Jacksonville,IL,39.730234,-90.22941
201,1977-07-01,Belleville,IL,38.532311,-89.93996
203,1978-08-29,Brookfield,MO,39.792042,-93.04973
204,1978-02-14,Princeton,KY,37.12596,-87.87429
205,1978-03-28,Philadelphia,MS,32.776368,-89.12788
206,1978-03-28,McKinney,TX,33.195073,-96.60363
207,1978-03-21,Cleveland,OK,36.260645,-96.39586
208,1978-04-04,Baxter Springs,KS,37.026091,-94.74929
209,1978-06-01,Ozark,AR,35.549469,-93.81819
210,1978-07-18,Holdenville,OK,35.088636,-96.38778
211,1978-09-12,Hillsboro,TX,32.015496,-97.12263
212,1977-11-01,Norman,OK,35.228649,-97.45629
213,1978-05-16,Litchfield,IL,39.179875,-89.65721
214,1978-10-10,Jasper,TX,30.941282,-94.03455
215,1979-05-15,Winona,MS,33.481491,-89.73155
216,1979-03-27,Marion,IL,37.724504,-88.92968
217,1978-09-05,Lewisville,TX,33.020118,-97.00771
218,1979-04-10,Selmer,TN,35.165045,-88.59327
219,1978-10-03,Sedalia,MO,38.702964,-93.23231
220,1978-10-17,Burleson,TX,32.535841,-97.30681
221,1978-10-31,Yukon,OK,35.506204,-97.74814
222,1978-12-05,Sparta,IL,38.122112,-89.71168
224,1978-06-13,Mount Vernon,IL,38.322558,-88.90842
225,1978-10-24,Sulphur,OK,34.49284,-96.98606
226,1978-10-17,Atlanta,TX,33.118611,-94.1773
227,1978-10-10,El Reno,OK,35.519046,-97.95534
228,1978-09-19,Cleburne,TX,32.343115,-97.40081
229,1978-10-31,Trumann,AR,35.623029,-90.52742
230,1978-12-05,Paris,AR,35.293281,-93.72139
231,1978-09-19,Ada,OK,34.780243,-96.68761
232,1978-09-19,Atoka,OK,34.347553,-96.11276
233,1978-11-21,Anna,IL,37.457806,-89.21408
234,1978-12-05,Kansas City,MO,39.230259,-94.47794
235,1978-11-28,Corning,AR,36.410344,-90.56479
236,1979-02-01,Crockett,TX,31.315837,-95.47393
237,1978-11-14,Harrisburg,IL,37.725834,-88.54208
238,1979-02-13,Pulaski,TN,35.204983,-87.01246
239,1979-07-31,Kosciusko,MS,33.038079,-89.56318
240,1979-06-19,Commerce,TX,33.25868,-95.91061
242,1979-09-18,Paola,KS,38.574804,-94.86706
243,1980-10-15,Wentzville,MO,38.808884,-90.85922
244,1979-07-31,Winnfield,LA,31.915828,-92.6445
246,1979-09-18,Skiatook,OK,36.381305,-96.03998
247,1979-03-13,Henryetta,OK,35.447961,-95.95038
248,1979-08-28,Mexia,TX,31.669823,-96.48721
249,1979-03-06,Cleveland,TX,30.35469,-95.04514
250,1979-03-27,Warsaw,MO,38.242861,-93.36354
251,1979-07-10,Mineola,TX,32.674657,-95.46982
252,1980-03-18,Du Quoin,IL,38.011729,-89.24688
253,1986-12-30,Jerseyville,IL,39.114762,-90.32442
254,1979-11-13,Olney,IL,38.72456,-88.08658
256,1979-08-21,Glen Carbon,IL,38.75592,-89.97442
257,1979-10-30,Morganfield,KY,37.67416,-87.90199
258,1980-02-12,Tupelo,MS,34.272374,-88.6822
259,1979-08-28,Rockwall,TX,32.93382,-96.45446
260,1979-07-17,Waxahachie,TX,32.397024,-96.83283
261,1981-12-01,Hot Springs National Park,AR,34.47056,-93.08805
262,1979-07-31,Benton,IL,38.000245,-88.92407
264,1979-06-26,Dickson,TN,36.065779,-87.40831
265,1979-09-25,Terrell,TX,32.747747,-96.28923
266,1980-06-24,Grapevine,TX,32.93195,-97.08498
267,1980-05-01,Webb City,MO,37.155108,-94.47465
268,1979-10-23,Savannah,TN,35.180947,-88.18946
269,1979-10-29,Lawton,OK,34.613973,-98.46255
270,1981-08-04,Homer,LA,32.78288,-93.03176
271,1979-08-07,Bowie,TX,33.54007,-97.88575
272,1979-08-21,Franklin,TN,35.921811,-86.7952
273,1979-07-03,Fulton,MS,34.265985,-88.38409
274,1979-08-21,Iuka,AL,34.803864,-88.10205
275,1979-10-23,Livingston,TX,30.712538,-94.89915
276,1981-02-18,Stigler,OK,35.272967,-95.16328
277,1980-03-04,Oklahoma City,OK,35.34377,-97.48596
278,1981-06-30,Shreveport,LA,32.457903,-93.7133
279,1980-02-12,De Queen,AR,34.038226,-94.33597
280,1979-10-30,Rockdale,TX,30.646291,-97.01149
281,1979-10-30,Heber Springs,AR,35.489516,-92.02327
282,1980-09-30,Franklin,KY,36.718074,-86.58202
283,1980-02-26,Bridge City,TX,30.026093,-93.84071
284,1979-09-25,Mansfield,TX,32.57701,-97.13485
285,1979-09-25,Huntsville,TX,30.805099,-95.50719
286,1979-12-04,Ennis,TX,32.331239,-96.61962
287,1979-11-27,Jasper,AL,33.828412,-87.27632
288,1979-10-30,Woodville,TX,30.768601,-94.40671
289,1979-10-30,McGehee,AR,33.628723,-91.38236
290,1980-07-01,Gonzales,TX,29.510439,-97.45352
292,1980-08-12,Lockhart,TX,29.872165,-97.68093
293,1980-05-28,Navasota,TX,30.374501,-96.07999
294,1980-07-29,Central City,KY,37.299591,-87.12992
295,1980-04-01,Eureka,MO,38.494203,-90.61304
296,1980-08-28,Dardanelle,AR,35.199221,-93.17973
297,1981-09-01,Porter,TX,30.102209,-95.25748
298,1980-08-12,Boaz,AL,34.203621,-86.1728
299,1980-09-30,Bowling Green,KY,36.930527,-86.44751
300,1980-10-14,Jacksonville,AL,33.824496,-85.77037
301,1980-08-12,Gadsden,AL,33.996698,-85.92496
302,1980-09-30,Murphysboro,IL,37.771806,-89.33971
303,1980-09-03,Holly Springs,MS,34.762615,-89.46092
304,1979-10-23,Springfield,TN,36.513979,-86.86892
305,1979-11-20,Carthage,MS,32.785139,-89.50644
306,1980-02-26,Arab,AL,34.323715,-86.49278
307,1982-11-16,West Monroe,LA,32.526944,-92.1599
308,1981-02-10,Manchester,TN,35.500068,-86.08414
309,1980-10-28,Abbeville,LA,29.943573,-92.14872
310,1980-09-30,Crowley,LA,30.213767,-92.37921
311,1980-10-13,Franklin,LA,29.759314,-91.52561
312,1980-11-18,Ville Platte,LA,30.710639,-92.30628
313,1981-04-07,House Springs,MO,38.405287,-90.57059
314,1979-11-20,Fayetteville,TN,35.136177000000004,-86.57433
315,1980-10-14,Oneonta,AL,33.944897,-86.45813
316,1980-11-18,Attalla,AL,34.043263,-86.08904
317,1981-09-15,Vandalia,IL,38.961799,-89.10978
318,1980-04-15,Arkadelphia,AR,34.111837,-93.05585
319,1980-06-24,Raymore,MO,38.803528,-94.45103
320,1980-10-14,Marlin,TX,31.310649,-96.87859
321,1980-11-11,Brenham,TX,30.183651,-96.40258
322,1982-06-29,Bryan,TX,30.655348,-96.34056
323,1980-09-03,Mansfield,LA,32.031067,-93.68585
324,1981-11-03,Bristow,OK,35.843486,-96.38183
325,1980-10-14,Richmond,MO,39.311978,-93.96947
326,1980-10-21,Higginsville,MO,39.058604,-93.73366
327,1980-08-05,Jay,OK,36.444215,-94.78345
328,1981-04-21,Waterloo,IL,38.325969,-90.14606
329,1980-04-15,Anniston,AL,33.719701,-85.83166
330,1980-11-11,Victoria,TX,28.873664,-97.00715
331,1981-02-10,Sulphur,LA,30.245205,-93.3636
332,1981-10-13,Huntsville,AL,34.748066,-86.68317
333,1981-02-03,Beaver Dam,KY,37.377266,-86.88364
334,1980-11-11,Carlinville,IL,39.280289,-89.8757
335,1980-11-11,Jackson,TN,35.693101,-88.80653
336,1980-08-04,Sheridan,AR,34.31985,-92.39319
337,1980-11-18,Fredericktown,MO,37.54834,-90.30599
338,1980-09-09,Lamar,MO,37.507321,-94.2761
339,1980-11-18,Fordyce,AR,33.834201,-92.43421
340,1981-06-30,Checotah,OK,35.443872,-95.54393
341,1980-11-18,Marysville,KS,39.852696,-96.63963
342,1980-11-18,Hiawatha,KS,39.857155,-95.54497
343,1981-06-02,Taylorville,IL,39.548928,-89.29692
344,1981-10-20,El Campo,TX,29.197701,-96.2774
345,1982-08-03,Palestine,TX,31.779481,-95.63325
346,1980-12-02,Augusta,KS,37.68066,-96.98153
347,1982-02-02,Indianola,MS,33.45139,-90.65824
348,1980-11-18,Monticello,AR,33.62086,-91.76272
349,1980-11-18,Dumas,AR,33.900515,-91.50041
350,1984-10-30,York,NE,40.865237,-97.58884
352,1980-11-18,Chester,IL,37.921816,-89.82842
353,1981-06-02,Graham,TX,33.081863,-98.60091
354,1981-06-30,Owensville,MO,38.33895,-91.49522
355,1980-11-18,Opelika,AL,32.660497,-85.39917
356,1981-09-01,Auburn,AL,32.577135,-85.47282
357,1981-07-21,Versailles,MO,38.428609,-92.84968
358,1981-06-02,Alma,AR,35.48891,-94.20897
359,1981-11-17,Fayetteville,AR,36.107078,-94.11592
360,1981-06-30,Cushing,OK,35.973286,-96.75751
361,1981-07-08,Collinsville,IL,38.679282,-89.99407
362,1981-08-18,Winfield,AL,33.925454,-87.78949
363,1981-12-01,Marshall,MO,39.10518,-93.18783
364,1981-03-31,Center,TX,31.769105,-94.18997
365,1981-03-31,Jackson,MS,32.280746,-90.10708
366,1983-02-01,Madisonville,TN,35.506259,-84.35738
368,1980-11-11,Parsons,KS,37.339913,-95.25834
369,1980-11-18,Winfield,KS,37.256575,-96.97885
370,1980-11-18,Wellington,KS,37.268972,-97.41247
371,1981-09-29,Granbury,TX,32.424695,-97.78894
372,1981-03-10,Dodge City,KS,37.755267,-100.02632
373,1981-03-10,Huntsville,AR,36.1161,-93.68605
374,1981-07-21,Coweta,OK,35.94785,-95.6377
375,1981-08-11,Huntsville,AL,34.72879,-86.57316
376,1981-04-21,Bossier City,LA,32.552315,-93.70836
377,1981-12-01,Livingston,AL,32.558949,-88.12485
378,1981-09-29,Holton,KS,39.466971,-95.7132
379,1981-10-20,Ozark,MO,37.021086,-93.21541
380,1982-02-02,Waldron,AR,34.907335,-94.13624
381,1981-08-04,Copperas Cove,TX,31.131076,-97.91666
382,1981-03-03,Ottawa,KS,38.614986,-95.27355
383,1981-07-08,Silsbee,TX,30.390569,-94.18056
384,1981-12-01,Lumberton,TX,30.240473,-94.20172
385,1981-07-28,Cuero,TX,29.09649,-97.28798
386,1983-07-01,Jennings,LA,30.242533,-92.66375
387,1982-09-21,Chandler,OK,35.702159,-96.88961
388,1982-08-31,Fort Smith,AR,35.406185,-94.39103
389,1981-11-17,Edmond,OK,35.623805,-97.47909
390,1981-03-10,Waverly,TN,36.085376,-87.81626
391,1981-06-02,Tupelo,MS,34.23615,-88.75665
392,1981-06-02,Weatherford,OK,35.527593,-98.71259
393,1981-09-01,Jackson,TN,35.60758,-88.81959
394,1981-12-01,Moulton,AL,34.496476,-87.27802
395,1981-11-03,Mission,TX,26.234417,-98.34205
396,1984-03-06,Anderson,SC,34.523657,-82.62509
397,1981-11-17,Mcallen,TX,26.172018,-98.25042
398,1982-05-04,Longview,TX,32.557684,-94.74353
399,1981-12-01,Longview,TX,32.523779,-94.80692
400,1983-10-18,Conroe,TX,30.33146,-95.50703
401,1981-09-29,Plaquemine,LA,30.270694,-91.24853
402,1981-12-01,Breaux Bridge,LA,30.301254,-91.86169
403,1981-11-03,Russellville,AL,34.519453,-87.78077
404,1982-03-02,San Marcos,TX,29.876944,-97.94668
405,1982-08-17,Leesville,LA,31.138723,-93.22745
406,1981-11-03,Smyrna,TN,35.968513,-86.52231
407,1981-12-01,Killeen,TX,31.027003,-97.76717
408,1982-07-13,Port Arthur,TX,29.921564,-93.92694
409,1981-10-13,Haleyville,AL,34.225425,-87.6118
410,1981-10-06,Murray,KY,36.617443,-88.28746
411,1982-08-03,Houston,MS,33.904246,-88.9671
412,1983-05-24,Athens,TX,32.184027,-95.84625
413,1982-05-18,Port Isabel,TX,26.080434,-97.25024
414,1982-06-29,Burkburnett,TX,34.085289,-98.58881
415,1982-03-02,Saint Martinville,LA,30.148473,-91.8003
417,1983-05-03,Sulphur Springs,TX,33.143752,-95.60102
418,1982-08-03,Fairbury,NE,40.151358,-97.20374
419,1982-08-17,Pratt,KS,37.642738,-98.75394
420,1982-05-31,Wichita Falls,TX,33.996515,-98.51781
421,1982-06-29,Decatur,TX,33.263039,-97.55657
422,1982-08-03,Robinson,IL,39.004728,-87.7495
423,1981-12-01,Alabaster,AL,33.232422,-86.80871
424,1982-08-03,Clanton,AL,32.834501,-86.64355
425,1982-08-03,Brent,AL,32.915182,-87.21488
426,1982-11-30,The Colony,TX,33.081421,-96.88957
427,1982-10-05,Greenville,TX,33.082411,-96.08977
428,1983-10-04,Zachary,LA,30.655578,-91.14015
429,1981-11-03,Edinburg,TX,26.344128,-98.18011
430,1981-09-01,Mayfield,KY,36.733761,-88.63449
431,1981-08-18,Paducah,KY,37.044233,-88.59046
432,1981-08-18,Talladega,AL,33.415449,-86.10908
433,1981-08-11,Huntsville,AL,34.77624,-86.61339
434,1981-08-11,Huntsville,AL,34.603017,-86.54293
435,1982-09-21,Highland,IL,38.752017,-89.67478
436,1982-09-21,Carlyle,IL,38.623384,-89.36368
437,1982-09-21,Sealy,TX,29.776375,-96.16474
438,1984-02-01,Breckenridge,TX,32.761058,-98.92225
440,1982-08-31,Rockport,TX,28.047744,-97.04818
442,1982-04-20,Kingsville,TX,27.496472,-97.86808
443,1982-10-05,Hondo,TX,29.379516,-99.12665
444,1982-07-13,Springfield,MO,37.168435,-93.312970000000007
445,1982-10-05,Leitchfield,KY,37.479797,-86.30731
446,1984-04-03,Madisonville,TX,30.956147,-95.91606
447,1982-11-16,Del Rio,TX,29.404267,-100.88116
448,1982-08-03,Shreveport,LA,32.42067,-93.8877
449,1983-05-03,Port Arthur,TX,29.921564,-93.92694
450,1982-11-16,Shreveport,LA,32.397255,-93.8043
451,1982-02-02,Columbia,MO,38.926838,-92.29003
452,1982-04-20,Mcallen,TX,26.26273,-98.23082
453,1982-03-16,Malden,MO,36.569283,-89.97423
454,1982-03-02,Fairfield,IL,38.374627,-88.35735
456,1982-10-05,Brownsville,TX,25.928274,-97.51618
457,1983-03-01,Vidor,TX,30.142953,-94.00797
458,1982-11-02,Aransas Pass,TX,27.915764,-97.15436
459,1983-11-29,Covington,GA,33.581406,-83.851
460,1983-11-29,Pana,IL,39.3928,-89.08194
461,1982-08-17,Eagle Pass,TX,28.716242,-100.48058
462,1982-10-05,Alvin,TX,29.41148,-95.24475
463,1982-08-31,Beeville,TX,28.426202,-97.74806
464,1982-10-05,Corpus Christi,TX,27.846568,-97.59435
465,1982-11-16,Floresville,TX,29.150937,-98.17929
466,1982-11-16,Bolivar,TN,35.25543,-88.98751
467,1982-11-16,Denton,TX,33.198442,-97.06078
468,1982-11-16,Texarkana,AR,33.428618,-93.99236
469,1982-11-02,Lake Charles,LA,30.129908,-93.19632
470,1982-10-05,Corpus Christi,TX,27.752356,-97.43465
471,1982-10-05,Lancaster,TX,32.590063,-96.75892
472,1986-04-29,Broken Arrow,OK,36.045907,-95.80694
473,1983-04-05,Giddings,TX,30.182175,-96.93171
474,1982-11-02,Edna,TX,28.966755,-96.65939
475,1982-11-30,Round Rock,TX,30.514401,-97.65549
476,1983-07-01,Gatesville,TX,31.43211,-97.72602
477,1982-11-16,Soddy Daisy,TN,35.269694,-85.16227
478,1984-03-06,Pearsall,TX,28.888468,-99.09005
479,1982-09-21,Altus,OK,34.638773,-99.31787
480,1982-11-30,Pittsfield,IL,39.606349,-90.78642
481,1982-11-02,Mattoon,IL,39.474889,-88.37421
482,1984-07-17,West Columbia,TX,29.152396,-95.66319
483,1982-10-05,Prattville,AL,32.459435,-86.42746
484,1983-02-01,Lawrence,KS,38.932303,-95.22513
485,1983-08-02,Donaldsonville,LA,30.103905,-91.00104
486,1983-10-04,Bonner Springs,KS,39.065703,-94.90453
487,1983-03-01,Clinton,IL,40.145501,-88.96776
488,1982-11-16,Quincy,FL,30.573563,-84.6147
489,1983-08-02,Hammond,LA,30.517866,-90.47254
490,1983-03-29,Corpus Christi,TX,27.633433,-97.26792
491,1983-03-01,Paducah,KY,37.066543,-88.65687
492,1983-10-18,Vincennes,IN,38.668827,-87.50791
493,1983-04-05,Paris,KY,38.212471,-84.23646
494,1982-10-05,Newnan,GA,33.400875,-84.71206
495,1983-08-02,Columbus,MS,33.492107,-88.43746
497,1983-03-01,Shelbyville,KY,38.211511,-85.21658
498,1983-08-02,Jena,LA,31.654792,-92.12872
499,1983-07-01,Enid,OK,36.402666,-97.92836
500,1984-08-02,El Paso,TX,31.901737,-106.41827
501,1985-05-14,Laurel,MS,31.701492,-89.1393
502,1983-07-01,Galliano,LA,29.435146,-90.30479
503,1983-08-02,Columbus,TX,29.712052,-96.56134
504,1983-08-02,Galveston,TX,29.279937,-94.82683
505,1983-11-01,Deridder,LA,30.835881,-93.27071
506,1983-04-05,Flora,IL,38.667752,-88.48855
507,1983-08-02,Lawrenceburg,KY,38.012479,-84.94075
508,1983-04-05,Kerrville,TX,30.042529,-99.15152
510,1983-08-16,Gainesville,GA,34.274355,-83.87003
511,1981-07-04,Sumter,SC,33.916418,-80.35738
512,1984-08-02,El Paso,TX,31.784541,-106.33705
513,1983-08-16,Big Spring,TX,32.21649,-101.4532
514,1981-07-04,Aiken,SC,33.486049,-81.709460000000007
515,1983-08-16,Murphy,NC,35.091332,-84.09018
516,1983-10-04,Gun Barrel City,TX,32.290819,-96.114108
517,1983-08-02,Mustang,OK,35.388059,-97.73626
518,1983-11-01,Canton,GA,34.228478,-84.50402
519,1983-11-01,Harrodsburg,KY,37.773923,-84.85812
520,1984-02-01,Winder,GA,33.992538,-83.71061
521,1984-03-20,Lake Charles,LA,30.226399,-93.20496
522,1984-03-20,Crosby,TX,29.920121,-95.07327
523,1983-11-29,Carthage,TX,32.145212,-94.31256
524,1983-08-16,Kenedy,TX,28.779344,-97.85626
526,1983-05-24,Louisville,KY,38.305636,-85.58424
527,1983-05-03,Angleton,TX,29.16866,-95.44541
528,1983-05-17,Bradenton,FL,27.448369,-82.52324
529,1983-07-01,La Marque,TX,29.366684,-94.97392
530,1983-07-01,El Dorado,AR,33.218456,-92.64911
531,1985-03-05,Lafayette,LA,30.211901,-92.05912
532,1983-07-01,Gonzales,LA,30.229237,-90.92251
533,1983-05-17,New Iberia,LA,29.975453,-91.84073
534,1983-05-17,Lafayette,LA,30.2334,-92.00959
535,1983-05-03,Abilene,TX,32.360362,-99.79886
536,1983-05-03,Abilene,TX,32.500532,-99.69803
537,1983-06-07,Odessa,TX,31.890374,-102.35398
538,1983-05-17,Gainesville,FL,29.713911,-82.29591
539,1983-05-19,Alexandria,LA,31.294532,-92.46015
540,1983-05-17,Morgan City,LA,29.694806,-91.18252
541,1983-10-04,Covington,LA,30.470793,-90.10491
542,1983-05-17,Houma,LA,29.593377,-90.7475
543,1983-06-07,Opelousas,LA,30.530965,-92.09521
544,1983-07-01,Oklahoma City,OK,35.459478,-97.39721
545,1983-11-15,Manchester,KY,37.164346,-83.76674
546,1983-10-04,Richmond,TX,29.584172,-95.747
547,1983-10-04,Plant City,FL,28.013755,-82.11685
548,1983-10-18,Lawrenceville,GA,33.949054,-83.98565
549,1983-10-16,Hobbs,NM,32.70778,-103.16616
550,1984-02-01,Lawrenceville,IL,38.738226,-87.65984
551,1984-10-23,Palatka,FL,29.666218,-81.67401
552,1984-10-16,Whitesburg,KY,37.130559,-82.83185
553,1983-05-17,Slidell,LA,30.266707,-89.73049
554,1983-06-07,Laredo,TX,27.542244,-99.49233
555,1983-07-01,Dublin,GA,32.526359,-82.93375
556,1983-07-01,Waycross,GA,31.220059,-82.35133
557,1983-06-07,Emporia,KS,38.410549,-96.19736
558,1983-06-07,Salina,KS,38.827875,-97.61553
559,1983-07-01,Muscatine,IL,41.413372,-91.00612
560,1983-07-01,Saint Joseph,MO,39.787394,-94.80941
561,1983-10-04,Eastland,TX,32.398681,-98.7959
562,1983-11-01,Leeds,AL,33.530698,-86.55506
563,1983-10-18,Orange City,FL,28.945857,-81.30512
564,1983-11-01,Oklahoma City,OK,35.481507,-97.6423
565,1983-10-18,Corsicana,TX,32.078228,-96.44612
566,1984-03-06,Boonville,IN,38.05732,-87.26579
567,1984-04-03,Caldwell,TX,30.517099,-96.67247
568,1984-05-01,Carthage,TN,36.264959,-85.94893
569,1984-11-29,Columbia,KY,37.123196,-85.27561
571,1984-04-03,Georgetown,KY,38.221179,-84.55465
572,1984-06-05,Kilgore,TX,32.387151,-94.87439
573,1984-04-03,Lees Summit,MO,38.92811,-94.32392
574,1984-06-29,Myrtle Beach,SC,33.627763,-78.98126
575,1984-05-22,Woodstock,GA,34.108027,-84.4843
576,1983-10-04,Tulsa,OK,36.148444,-95.90841
577,1984-08-02,Olathe,KS,38.860511,-94.77581
578,1983-10-18,Sevierville,TN,35.818653,-83.59197
579,1983-11-29,Saint Augustine,FL,29.811123,-81.30987
580,1983-11-29,Bartow,FL,27.894991,-81.82638
581,1983-10-04,Marshalltown,IA,42.042506,-92.90646
582,1983-11-29,Daytona Beach,FL,29.116361,-80.98175
583,1984-05-22,Oneida,TN,36.49787,-84.51808
584,1984-10-16,Dry Ridge,KY,38.691006,-84.6418
585,1984-02-01,Rock Hill,SC,34.914611,-81.0125
586,1988-06-02,Conway,SC,33.850218,-79.01692
587,1984-05-22,Sparta,TN,35.943026,-85.45113
588,1984-03-06,Albany,GA,31.568073,-84.22644
589,1984-02-01,Louisville,KY,38.085601,-85.66979
590,1984-08-31,Fort Worth,TX,32.670345,-97.4143
591,1984-09-18,Cynthiana,KY,38.397678,-84.2939
592,1984-08-02,Derby,KS,37.557434,-97.25167
593,1984-10-16,Douglas,GA,31.522042,-82.84153
594,1984-04-17,Fayetteville,GA,33.47875,-84.47668
595,1984-10-02,Harlingen,TX,26.195591,-97.75321
596,1984-10-16,Herrin,IL,37.804014,-89.02702
597,1984-09-18,Houston,TX,29.984672,-95.52887
598,1984-10-16,Kearney,NE,40.709895,-99.05499
599,1984-08-31,Kingsport,TN,36.522968,-82.51162
600,1984-07-17,Pampa,TX,35.533093,-100.96041
601,1984-08-31,San Angelo,TX,31.344515,-100.47217
602,1984-04-03,Spring,TX,30.143485,-95.46821
603,1985-10-08,Pekin,IL,40.567088,-89.63382
604,1983-11-15,Dothan,AL,31.249042,-85.40605
605,1983-11-25,Savannah,GA,31.988676,-81.09116
606,1983-11-25,Savannah,GA,32.022019,-80.99193
607,1984-06-29,Hobart,OK,35.018385,-99.09374
608,1984-06-29,Midland,TX,32.021056,-102.16008
609,1984-09-18,Hannibal,MO,39.695798,-91.40084
610,1984-04-03,Stephenville,TX,32.242816,-98.21058
611,1984-04-03,Roswell,NM,33.485178,-104.55089
612,1984-02-04,Charleston,IL,39.496547,-88.17348
613,1984-04-03,Ormond Beach,FL,29.284924,-81.10296
614,1984-05-22,Lagrange,GA,33.029838,-85.0745
615,1984-11-13,Cartersville,GA,34.200264,-84.77533
616,1984-08-31,Orangeburg,SC,33.487767,-80.8564
617,1985-11-12,Sullivan,IN,39.090479,-87.40667
618,1984-08-02,Hiram,GA,33.867574,-84.77103
619,1984-10-16,Dayton,TN,35.495894,-85.01032
620,1984-11-13,Bristol,TN,36.561341,-82.16869
621,1981-07-04,Lake City,SC,33.859815,-79.7542
622,1984-11-13,Oklahoma City,OK,35.552755,-97.63571
623,1984-08-21,North Fort Myers,FL,26.698526,-81.9178
624,1981-07-04,Newberry,SC,34.282877,-81.61641
625,1981-07-04,Georgetown,SC,33.38934,-79.32638
626,1984-10-02,Seminole,TX,32.718232,-102.73458
627,1981-07-04,Dillon,SC,34.413907,-79.36512
628,1981-07-04,North Charleston,SC,32.879529,-80.05911
629,1981-07-04,Union,SC,34.714045,-81.60496
630,1982-03-01,Florence,SC,34.195705,-79.80977
631,1981-07-04,Easley,SC,34.789884,-82.56459
632,1982-07-13,Mount Pleasant,SC,32.813518,-79.85899
633,1984-10-23,Kewanee,IL,41.247536,-89.92848
634,1981-07-04,Camden,SC,34.278935,-80.59142
635,1981-07-04,Savannah,GA,31.986249,-81.20259
636,1985-03-05,Princeton,IL,41.372528,-89.44315
637,1985-02-05,Lexington,NE,40.786048,-99.7424
638,1981-07-04,Gaffney,SC,35.10425,-81.69232
639,1981-07-04,Brunswick,GA,31.260995,-81.49832
640,1981-07-04,Greenville,SC,34.825592,-82.34099
641,1981-07-04,Greenville,SC,34.840717,-82.44234
642,1981-07-04,Cheraw,SC,34.68862,-79.92315
643,1981-07-04,Myrtle Beach,SC,33.765136,-78.79097
644,1981-07-04,Anderson,SC,34.478139,-82.6455
645,1984-08-02,Norfolk,NE,42.026209,-97.41741
646,1984-10-16,Anamosa,IA,42.106972,-91.27531
647,1985-02-05,Grinnell,IA,41.736434,-92.72123
648,1984-11-29,Saint Charles,MO,38.72926,-90.65332
649,1984-08-21,Titusville,FL,28.564077,-80.81695
650,1984-09-18,Big Stone Gap,VA,36.851953,-82.77056
651,1984-06-29,Beaumont,TX,30.092679,-94.16377
652,1984-10-16,Garden City,KS,37.976008,-100.82503
653,1981-07-04,Hopkinsville,KY,36.866845,-87.47617
655,1987-04-28,Madisonville,KY,37.330791,-87.50378
656,1981-07-04,Shelbyville,TN,35.47066,-86.45974
657,1981-07-04,Cookeville,TN,36.1832,-85.52054
658,1981-07-04,Rome,GA,34.281423,-85.23825
659,1981-07-04,Nashville,TN,36.151324,-86.8559
660,1981-07-04,Muscle Shoals,AL,34.759947,-87.62705
661,1981-07-04,Athens,AL,34.784028,-87.02767
662,1981-07-04,Decatur,AL,34.539072,-86.95732
663,1981-07-04,Athens,TN,35.441378,-84.61975
664,1984-10-30,Hays,KS,38.881082,-99.32559
665,1981-07-04,Campbellsville,KY,37.372314,-85.3549
666,1984-11-29,Sebring,FL,27.483817,-81.42131
667,1981-07-04,Tullahoma,TN,35.357522,-86.21484
668,1981-07-04,McMinnville,TN,35.687286,-85.787
669,1981-07-04,Dalton,GA,34.780699,-84.939940000000007
670,1981-07-04,Cullman,AL,34.167893,-86.82506
671,1981-07-04,Lebanon,TN,36.240331,-86.29271
672,1981-07-04,Alcoa,TN,35.784708,-83.97956
673,1987-06-02,Clarksville,TN,36.528448,-87.34142
674,1981-08-12,Gallatin,TN,36.388997,-86.4548
675,1981-07-04,Union City,TN,36.426933,-89.0727
676,1981-07-04,Rockwood,TN,35.861763,-84.70042
677,1981-07-04,Dyersburg,TN,36.038042,-89.38613
678,1981-07-04,Newport,TN,35.963276,-83.20116
680,1981-07-04,Greeneville,TN,36.229928,-82.81406
681,1981-07-04,Guntersville,AL,34.350835,-86.30475
682,1981-07-04,Murfreesboro,TN,35.896645,-86.42425
683,1981-07-04,Lawrenceburg,TN,35.259613,-87.37522
684,1981-07-04,Lexington,TN,35.658409,-88.40535
685,1981-07-04,Morristown,TN,36.186008,-83.27474
686,1985-02-05,Fitzgerald,GA,31.720029,-83.25093
687,1981-07-04,Crossville,TN,35.929314,-85.05926
688,1981-07-04,Nashville,TN,36.079259,-86.72584
689,1981-07-04,Somerset,KY,37.112274,-84.588
690,1981-07-04,Elizabethton,TN,36.355251,-82.18843
691,1981-07-04,Fort Payne,AL,34.460537,-85.76744
692,1981-07-04,Danville,KY,37.644426,-84.78862
693,1985-07-16,Jackson,KY,37.533559,-83.34547
694,1981-07-04,Henderson,KY,37.825094,-87.56055
695,1981-07-04,Madison,TN,36.264069,-86.70566
696,1985-09-10,Prestonsburg,KY,37.667872,-82.75876
697,1984-10-16,Ocala,FL,29.166186,-82.17027
698,1981-07-04,Cleveland,TN,35.219532,-84.86489
699,1981-07-04,Oxford,MS,34.345016,-89.50735
700,1981-07-04,Selma,AL,32.419846,-86.97783
701,1981-07-04,Owensboro,KY,37.753347,-87.17419
702,1981-07-04,Winchester,KY,37.98223,-84.17023
703,1984-10-16,Tomball,TX,30.073775,-95.61882
705,1984-09-18,Mount Dora,FL,28.786272,-81.64475
706,1984-08-31,Zephyrhills,FL,28.235313,-82.16868
707,1981-07-04,Clarksdale,MS,34.196126,-90.59442
708,1985-05-14,Vicksburg,MS,32.292761,-90.87184
709,1981-07-04,Elizabethtown,KY,37.704287,-85.86403
710,1981-07-04,Hermitage,TN,36.180507,-86.60111
711,1981-07-04,Glasgow,KY,36.970776,-85.91232
712,1981-07-04,Scottsboro,AL,34.712327,-86.08387
713,1984-10-23,Dade City,FL,28.346914,-82.20293
714,1981-07-04,West Helena,AR,34.546274,-90.658690000000007
715,1981-07-04,Tuscaloosa,AL,33.149246,-87.52303
716,1981-07-04,Greenwood,MS,33.528734,-90.17663
718,1984-11-13,Auburndale,FL,28.068865,-81.80267
719,1981-07-04,Richmond,KY,37.745999,-84.28433
720,1981-07-04,Frankfort,KY,38.201649,-84.86935
721,1985-01-22,Port Charlotte,FL,26.984486,-82.14859
722,1981-07-04,Carrollton,GA,33.588486,-85.1062
723,1981-07-04,Troy,AL,31.852825,-85.92314
724,1984-11-13,Jefferson City,TN,36.109404,-83.48325
725,1984-10-16,Haines City,FL,28.101527,-81.6235
726,1981-07-04,Alexander City,AL,32.903432,-85.92669
727,1981-07-04,Cedartown,GA,34.010162,-85.25762
728,1985-01-22,Hilton Head Island,SC,32.226713,-80.74325
729,1981-07-04,Bardstown,KY,37.81109,-85.46164
730,1981-07-04,Sylacauga,AL,33.185782,-86.25105
731,1981-07-04,Demopolis,AL,32.495484,-87.84521
733,1981-07-04,Valley,AL,32.777662,-85.17623
734,1981-07-04,Enterprise,AL,31.32579,-85.84117
735,1981-07-04,Winchester,TN,35.192829,-86.14045
736,1981-07-04,Russellville,KY,36.860612,-86.88171
737,1981-07-04,Lewisburg,TN,35.461359,-86.7792
738,1981-07-04,Camden,TN,36.050286,-88.10137
739,1981-07-04,Middlesboro,KY,36.617181,-83.72186
740,1981-07-04,Ozark,AL,31.447119,-85.62908
741,1981-07-04,Lenoir City,TN,35.815524,-84.29301
742,1984-08-31,Kingsport,TN,36.547133,-82.55408
743,1984-08-31,Oklahoma City,OK,35.395362,-97.49701
744,1984-10-16,Humble,TX,30.001902,-95.16962
745,1984-10-02,Stockbridge,GA,33.547578,-84.21809
746,1984-05-22,Temple,TX,31.086483,-97.40076
747,1985-02-05,East Saint Louis,IL,38.564451,-90.1628
748,1985-02-05,Newton,IA,41.702148,-93.04467
749,1985-07-02,Ames,IA,42.02933,-93.60966
750,1984-10-02,Independence,IA,42.470191,-91.89268
751,1984-10-16,Pella,IA,41.411394,-92.91126
752,1984-03-20,Pasadena,TX,29.650492,-95.14632
753,1984-06-05,Cedar Falls,IA,42.527184,-92.45609
754,1984-04-03,Statesboro,GA,32.423083,-81.80677
755,1984-05-01,Amarillo,TX,35.173704,-101.92914
756,1984-04-17,Trion,GA,34.558404,-85.30301
757,1984-10-02,Pleasanton,TX,28.958803,-98.4639
758,1984-11-13,Americus,GA,32.071641,-84.21942
759,1984-10-16,Wauchula,FL,27.541676,-81.8127
760,1985-02-05,Hardinsburg,KY,37.777083,-86.48345
761,1985-04-30,Mathews,LA,29.697038,-90.55223
762,1984-11-13,Birmingham,AL,33.568573,-86.72163
763,1984-11-13,Fairfield,AL,33.476908,-86.91684
764,1984-11-13,Bessemer,AL,33.346817,-86.95252
765,1984-11-29,San Antonio,TX,29.581304,-98.40889
766,1984-11-13,Florence,AL,34.817537,-87.66253
767,1985-01-22,Lake City,FL,30.216073,-82.6396
768,1984-10-23,Katy,TX,29.825908,-95.7301
769,1985-06-04,Venice,FL,27.055013,-82.3973
770,1985-04-30,Great Bend,KS,38.363151,-98.78495
771,1985-05-21,Merritt Island,FL,28.350373,-80.6691
772,1985-10-22,Houston,TX,29.722704,-95.6314
773,1985-08-30,Eunice,LA,30.492895,-92.41578
774,1985-04-30,Columbus,NE,41.437838,-97.37192
775,1985-10-01,Galesburg,IL,40.948073,-90.36871
776,1985-06-04,Fremont,NE,41.434796,-96.48869
777,1985-07-02,Orange,TX,30.089757,-93.77408
778,1985-05-21,Punta Gorda,FL,26.914393,-82.04106
779,1985-04-30,Lakeland,FL,28.015032,-81.95206
780,1985-05-21,Monroe,GA,33.786041,-83.69901
781,1985-07-16,Marble Falls,TX,30.566681,-98.30756
782,1985-08-20,Uvalde,TX,29.252882,-99.8165
783,1985-07-02,Macon,MO,39.747736,-92.46878
784,1985-04-30,Mount Pleasant,IA,40.974026,-91.57195
785,1985-06-04,Waynesboro,MS,31.688901,-88.65623
786,1985-12-31,Dekalb,IL,41.924127,-88.74617
787,1985-07-30,Riverdale,GA,33.555145,-84.40108
788,1985-09-10,Clinton,AR,35.586064,-92.48355
789,1985-10-29,Mesquite,TX,32.767329,-96.60759
790,1985-07-16,McCook,NE,40.225039,-100.63052
791,1985-07-16,Alice,TX,27.737965,-98.09302
792,1985-07-02,Aledo,IL,41.202461,-90.73137
793,1985-10-01,Canyon,TX,34.971029,-101.9212
794,1985-07-16,Hutchinson,KS,38.034292,-97.92382
795,1985-05-14,Barnwell,SC,33.226172,-81.36031
796,1986-04-01,Peru,IL,41.330789,-89.1299
797,1985-09-10,West Burlington,IA,40.830534,-91.17849
798,1985-08-30,Marshall,IL,39.396463,-87.69589
799,1985-07-02,Liberal,KS,37.067979,-100.92813
800,1985-09-10,Leesburg,FL,28.797245,-81.88466
801,1985-10-08,Maryville,MO,40.341716,-94.87498
802,1985-07-16,Monroe,WI,42.603462,-89.64037
803,1985-08-30,Bogalusa,LA,30.762908,-89.87774
804,1985-08-30,Mineral Wells,TX,32.810275,-98.10707
805,1983-09-02,Fenton,MO,38.502854,-90.46088
806,1985-08-30,Las Cruces,NM,32.300193,-106.76078
807,1985-10-29,North Richland Hills,TX,32.855666,-97.21818
808,1985-11-12,Lake Jackson,TX,29.036879,-95.44103
809,1985-08-30,Anniston,AL,33.591301,-85.83571
810,1985-06-04,Mason City,IA,43.153969,-93.20037
811,1985-07-16,Arcadia,FL,27.201006,-81.87196
812,1985-07-16,Dumas,TX,35.893121,-101.95908
813,1985-10-08,Brownwood,TX,31.73003,-99.00605
814,1985-07-16,Okeechobee,FL,27.1944,-80.84644
815,1985-08-30,Osage Beach,MO,38.130807,-92.66935
816,1985-10-08,Brookhaven,MS,31.574319,-90.45029
817,1985-10-08,Kissimmee,FL,28.287883,-81.46862
818,1985-12-31,Panama City Beach,FL,30.196771,-85.81279
819,1985-07-30,Cape Coral,FL,26.63075,-81.95251
820,1985-08-30,Boonville,MO,38.935305,-92.73932
821,1985-10-16,Clovis,NM,34.432846,-103.22589
822,1986-01-21,Amarillo,TX,35.184253,-101.81073
823,1985-11-12,Ponca City,OK,36.707393,-97.10167
824,1985-07-02,Albuquerque,NM,35.135303,-106.52223
825,1986-08-19,Stanford,KY,37.520836,-84.6735
826,1985-07-02,Farmington,NM,36.785816,-108.14505
827,1985-08-30,Canton,TX,32.532449,-95.88
828,1985-10-22,Plainfield,IN,39.69775,-86.39589
829,1985-07-02,Santa Fe,NM,35.616662,-105.97926
830,1986-01-21,Rock Falls,IL,41.759473,-89.69452
831,1985-07-02,Albuquerque,NM,35.073343,-106.58232
833,1985-10-08,Carmi,IL,38.087838,-88.15583
834,1985-11-12,Bethany,MO,40.266201,-94.0304
835,1985-07-02,Albuquerque,NM,35.067447,-106.50645
836,1985-07-30,Saint Marys,GA,30.761081,-81.56912
837,1985-10-01,Thayer,MO,36.543362,-91.52391
838,1986-01-21,Sand Springs,OK,36.139385,-96.16523
839,1985-11-12,Baton Rouge,LA,30.45514,-91.06358
841,1985-10-01,Tipton,IA,41.750868,-91.13361
842,1985-10-01,Pueblo,CO,38.370203,-104.61964
843,1985-09-10,Camilla,GA,31.209854,-84.23667
844,1986-09-02,Morris,IL,41.370642,-88.40749
845,1985-10-01,Buffalo,MO,37.630577,-93.10129
846,1985-10-15,La Grange,TX,29.909764,-96.8745
847,1985-09-17,Dodgeville,WI,42.974296,-90.14404
848,1985-11-12,Southaven,MS,34.96848,-89.99793
849,1986-02-04,Spring,TX,30.056394,-95.38961
850,1985-07-02,Albuquerque,NM,35.106396,-106.57927
851,1986-03-04,Ruidoso Downs,NM,33.342426,-105.56694
852,1985-12-31,Ottawa,IL,41.35263,-88.84734
853,1985-08-20,Mobile,AL,30.646415,-88.23657
854,1986-01-21,Frankfort,IN,40.290615,-86.5028
855,1986-01-21,Union City,GA,33.580878,-84.54611
856,1985-10-01,Bremen,GA,33.723939,-85.14282
857,1985-10-01,Sanford,FL,28.769173,-81.27631
858,1985-11-12,NA,NA,NA,NA
859,1985-11-12,Highland Park,FL,27.918187,-81.493521
860,1985-12-31,Deland,FL,29.021782,-81.33352
861,1985-11-12,Lubbock,TX,33.496603,-101.86923
862,1985-12-31,Hinesville,GA,31.828575,-81.61617
863,1985-10-15,Roanoke,AL,33.159848,-85.36865
864,1985-10-29,Vidalia,GA,32.220155,-82.41493
865,1986-01-21,New Braunfels,TX,29.699844,-98.10754
866,1988-06-30,Mobile,AL,30.586808,-88.18552
867,1986-03-05,Scottsbluff,NE,41.885553,-103.65241
868,1986-03-05,Carlsbad,NM,32.408311,-104.29134
869,1986-01-21,Alamosa,CO,37.471802,-105.83471
870,1985-10-22,Jasper,IN,38.408794,-86.93876
871,1985-10-01,Mountain View,MO,36.996408,-91.71697
872,1986-04-01,Pearland,TX,29.56218,-95.26982
873,1986-03-04,Taos,NM,36.414942,-105.5808
874,1985-11-12,Natchez,MS,31.535545,-91.35434
875,1986-04-29,Ridgeland,MS,32.420814,-90.13134
876,1986-04-29,Many,LA,31.514631,-93.54869
877,1986-03-04,Monroe,NC,35.031947,-80.56002
878,1985-10-29,Cumming,GA,34.201503,-84.09764
879,1985-12-31,Lafayette,TN,36.537994,-86.01497
880,1986-11-11,Irving,TX,32.826729,-96.9614
881,1985-11-12,Lexington,SC,33.991362,-81.250470000000007
882,1986-02-04,Prairie Du Chien,WI,43.036566,-91.11838
883,1986-02-04,Raymondville,TX,26.500175,-97.81013
884,1986-03-18,Shelbyville,IN,39.523797,-85.77208
885,1986-04-01,Seward,NE,40.909197,-97.11206
886,1986-03-11,Fort Dodge,IA,42.499242,-94.18256
887,1987-02-03,Petal,MS,31.358823,-89.2279
888,1986-06-17,Butler,MO,38.259528,-94.32317
889,1986-03-11,Thomasville,GA,30.883208,-83.91237
890,1986-05-20,Orlando,FL,28.591692,-81.24717
891,1987-02-03,Sterling,IL,41.813776,-89.70537
892,1986-03-11,Ankeny,IA,41.725288,-93.60475
893,1986-06-03,Lindsay,OK,34.839562,-97.60045
894,1986-08-05,Tulsa,OK,36.096296,-95.8847
895,1986-07-01,Cuba,MO,38.092097,-91.4163
896,1986-09-02,Grand Prairie,TX,32.675604,-97.02346
897,1986-03-05,Fort Stockton,TX,30.877528,-102.852
898,1986-05-20,Pecos,TX,31.388404,-103.52515
899,1986-06-03,Valdosta,GA,30.807279,-83.28661
900,1986-06-03,Childress,TX,34.38587,-100.28401
901,1986-03-18,Seguin,TX,29.56478,-97.96283
902,1986-03-04,Greencastle,IN,39.652374,-86.87361
903,1986-04-29,Jackson,MS,32.284829,-90.22778
904,1986-01-21,Foley,AL,30.396876,-87.69616
905,1986-06-10,Longmont,CO,40.171484,-105.10033
906,1986-07-15,Gallup,NM,35.534253,-108.84857
907,1986-04-29,Forsyth,GA,33.0409,-83.92941
908,1986-07-15,Orlando,FL,28.463509,-81.47514
909,1986-06-10,Chalmette,LA,29.946404,-89.96118
910,1986-03-04,Lake Geneva,WI,42.587613,-88.45828
911,1986-06-10,Marrero,LA,29.869283,-90.10933
912,1986-06-10,New Orleans,LA,30.033475,-89.97736
913,1986-03-18,Decorah,IA,43.345879,-91.77187
914,1986-07-08,Cassville,MO,36.681589,-93.85105
915,1986-08-05,Stafford,TX,29.626187,-95.57145
916,1986-08-12,Hattiesburg,MS,31.325437,-89.37926
917,1986-07-08,Brady,TX,31.121411,-99.3407
918,1986-04-01,Marshall,TX,32.547424,-94.37958
919,1986-06-17,Fort Walton Beach,FL,30.447248,-86.62113
921,1986-03-05,Salida,CO,38.533464,-106.03468
922,1986-06-17,Corydon,IN,38.208144,-86.12978
923,1986-04-29,Noblesville,IN,40.050109,-85.99815
924,1986-03-11,Sterling,CO,40.633845,-103.21574
925,1986-03-11,Seffner,FL,27.987925,-82.28819
926,1986-09-16,Falfurrias,TX,27.217893,-98.16479
927,1986-08-05,Plainview,TX,34.191002,-101.72506
929,1986-08-19,Port Saint Lucie,FL,27.291694,-80.29691
930,1986-07-01,Montgomery,AL,32.31324,-86.23672
931,1986-09-02,Vero Beach,FL,27.645377,-80.51468
932,1986-07-15,Griffin,GA,33.268185,-84.27306
933,1986-09-30,Rochelle,IL,41.935139,-89.06891
934,1986-07-15,Daphne,AL,30.620594,-87.88312
935,1986-09-30,Denham Springs,LA,30.468526,-90.92827
936,1986-11-18,Effingham,IL,39.123807,-88.56
937,1986-09-02,Marietta,GA,34.027533,-84.51475
938,1986-07-01,Montgomery,AL,32.373714,-86.16443
939,1986-09-02,Waco,TX,31.535916,-97.18588
940,1986-07-15,Fort Worth,TX,32.762563,-97.48079
941,1986-09-30,Brandon,FL,27.911201,-82.2948
942,1986-07-15,Ocoee,FL,28.574628,-81.52946
943,1986-09-30,Casselberry,FL,28.665125,-81.31772
944,1986-06-17,Crestview,FL,30.757479,-86.51088
945,1986-07-01,Lubbock,TX,33.591877,-101.94754
946,1987-02-03,Piedmont,MO,37.151397,-90.69685
947,1986-08-19,Sherman,TX,33.632806,-96.59106
948,1987-05-12,Hickory,NC,35.70701,-81.3534
949,1986-09-02,Dallas,TX,32.666984,-96.87633
950,1986-09-02,Memphis,TN,35.208709,-89.805179999999993
951,1986-09-02,Hempstead,TX,30.096649,-96.06979
952,1986-09-09,Moultrie,GA,31.165358,-83.77172
953,1986-08-12,Loveland,CO,40.383636,-105.10349
954,1986-09-30,Hazlehurst,MS,31.841281,-90.42995
955,1986-09-02,Apopka,FL,28.658395,-81.50319
956,1986-08-19,Satellite Beach,FL,28.172041,-80.59957
957,1986-09-16,Geneseo,IL,41.464473,-90.15854
958,1986-11-11,Platteville,WI,42.743948,-90.48625
959,1986-09-09,Bushnell,FL,28.663132,-82.14042
960,1986-09-09,Dunnellon,FL,29.060092,-82.35195
961,1987-02-03,La Place,LA,30.073941,-90.48516
962,1986-09-16,Trinidad,CO,37.191882,-104.47809
963,1987-01-13,Weatherford,TX,32.77516,-97.77987
964,1987-02-03,El Paso,TX,31.70831,-106.32749
965,1986-09-16,Tomah,WI,43.984412,-90.48416
966,1986-09-09,Cortez,CO,37.344985,-108.60355
967,1986-09-16,Spring Hill,FL,28.470236,-82.59741
968,1986-08-05,Winter Haven,FL,27.997276,-81.74554
969,1986-11-18,Gulfport,MS,30.461786,-89.10381
970,1986-11-18,Picayune,MS,30.52798,-89.66611
971,1986-10-28,Viroqua,WI,43.543934,-90.89904
972,1987-02-03,Fort Worth,TX,32.823629,-97.45167
973,1987-08-18,Fort Pierce,FL,27.448688,-80.36247
974,1986-11-11,Melbourne,FL,28.073891,-80.67167
975,1986-11-11,Durant,OK,34.009209,-96.38612
976,1986-11-18,Winnsboro,LA,32.156791,-91.72874
977,1986-11-11,Fernandina Beach,FL,30.641487,-81.46092
978,1987-01-13,Arkansas City,KS,37.067387,-97.02831
979,1986-11-18,Sparta,WI,43.96977,-90.80796
980,1986-11-18,Greeley,CO,40.421845,-104.69175
981,1986-11-18,Meridian,MS,32.339004,-88.6596
982,1986-11-18,Owatonna,MN,44.07393,-93.22716
983,1987-02-03,Blue Earth,MN,43.630763,-94.10129
984,1986-11-18,Castle Rock,CO,39.385141,-104.85962
985,1986-11-11,Fairfield,IA,41.017736,-91.95
986,1987-02-03,Frisco,CO,39.532506,-106.14029
987,1987-03-31,Fort Myers,FL,26.501582,-81.82841
988,1987-01-13,Land O Lakes,FL,28.233671,-82.45463
989,1986-11-11,Metairie,LA,29.997168,-90.2138
990,1986-09-16,Milton,FL,30.627637,-87.16724
991,1986-11-11,Mobile,AL,30.674057,-88.10249
992,1987-02-03,Tulsa,OK,36.025405,-95.92953
993,1986-11-18,Mcpherson,KS,38.367298,-97.67719
994,1987-02-03,New Port Richey,FL,28.209833,-82.66973
995,1987-02-03,Franklin,IN,39.482105,-86.05043
996,1987-02-03,Spencer,IN,39.290029,-86.77844
1000,1987-02-03,Brownsville,TX,25.918758,-97.42739
1001,1987-02-03,Pueblo,CO,38.235865,-104.66972
1002,1987-03-03,Linton,IN,39.039636,-87.16987
1003,1987-02-03,Plano,IL,41.665654,-88.53697
1004,1987-03-31,Bradenton,FL,27.455543,-82.63372
1005,1987-03-03,Waverly,IA,42.741016,-92.45984
1006,1986-10-28,Cordele,GA,31.950899,-83.77808
1007,1987-02-03,Richland Center,WI,43.361048,-90.40776
1008,1987-03-03,Fort Collins,CO,40.532354,-105.0535
1009,1987-03-31,Republic,MO,37.124302,-93.47407
1010,1986-11-18,Rockingham,NC,34.937078,-79.7605
1011,1986-11-11,Rincon,GA,32.293147,-81.23006
1012,1987-05-12,Beaver Dam,WI,43.456814,-88.84058
1013,1987-03-03,Clinton,IN,39.66851,-87.43577
1014,1986-11-18,Independence,MO,39.053255,-94.4061
1015,1987-03-31,El Paso,TX,31.848055,-106.54487
1016,1987-04-28,Thibodaux,LA,29.797776,-90.81809
1017,1987-03-03,Manning,SC,33.647611,-80.21281
1018,1987-06-02,Eastman,GA,32.193953,-83.1848
1019,1987-05-12,Canon City,CO,38.464212,-105.27973
1020,1987-06-02,Albert Lea,MN,43.652042,-93.36916
1021,1987-05-12,Warrenton,MO,38.818852,-91.17
1022,1987-06-16,Tyler,TX,32.388631,-95.41373
1023,1987-03-31,Galax,VA,36.649548,-80.92683
1024,1987-04-28,Swainsboro,GA,32.605196,-82.3391
1025,1987-04-28,Mccomb,MS,31.225598,-90.43327
1026,1987-03-31,Bedford,IN,38.865549,-86.46897
1027,1987-06-30,Concord,NC,35.405636,-80.63823
1028,1987-05-12,East Peoria,IL,40.683387,-89.54493
1029,1987-06-30,Homosassa,FL,28.746912,-82.53331
1030,1987-03-03,Lancaster,SC,34.729073,-80.76005
1031,1987-08-04,Memphis,TN,35.057311,-89.86291
1032,1987-04-28,Panama City,FL,30.195424,-85.66458
1033,1987-06-16,Seymour,IN,38.958688,-85.89917
1034,1987-06-30,Shelby,NC,35.315118,-81.55584
1035,1987-08-04,Spartanburg,SC,34.940921,-81.98682
1036,1987-03-03,Forest City,NC,35.317602,-81.86722
1037,1987-04-28,Summerville,SC,33.034586,-80.18599
1038,1987-03-03,Waseca,MN,44.067673,-93.5103
1039,1987-06-02,Mount Airy,NC,36.49376,-80.62336
1040,1987-08-04,Houston,TX,29.896656,-95.64842
1041,1987-05-12,Weslaco,TX,26.162609,-97.98512
1042,1987-05-12,Bastrop,TX,30.120443,-97.30991
1043,1987-09-01,Pauls Valley,OK,34.741677,-97.22846
1044,1987-06-16,Tyler,TX,32.264365,-95.31347
1045,1987-07-14,Lafayette,CO,40.002156,-105.10036
1046,1987-05-12,Carrizo Springs,TX,28.524292,-99.83827
1047,1987-09-01,Morrow,GA,33.58776,-84.33011
1048,1987-07-14,Williamsburg,KY,36.709853,-84.1508
1050,1987-01-13,Lamesa,TX,32.714521,-101.94086
1051,1987-01-13,Levelland,TX,33.609208,-102.41478
1052,1987-02-03,Fayette,AL,33.681768,-87.83026
1053,1987-02-03,La Grange,KY,38.407833,-85.38475
1054,1987-02-03,Atchison,KS,39.553786,-95.13472
1055,1987-09-01,Garland,TX,32.960375,-96.66188
1056,1987-02-03,Newcastle,OK,35.240232,-97.60908
1057,1987-02-03,Tallassee,AL,32.553036,-85.9136
1058,1987-07-14,Montrose,CO,38.436409,-107.8625
1059,1987-10-01,Forest,MS,32.379693,-89.46552
1060,1987-10-20,Morganton,NC,35.742752,-81.71625
1061,1987-09-01,Hazlehurst,GA,31.844772,-82.59809
1062,1987-10-01,Friendswood,TX,29.516873,-95.19472
1063,1987-09-01,Geneva,AL,31.043454,-85.87941
1064,1987-08-04,Lenoir,NC,35.934783,-81.54476
1065,1987-08-18,Hope,AR,33.657969,-93.59486
1066,1987-10-01,Pascagoula,MS,30.36298,-88.52901
1067,1987-06-30,Hallettsville,TX,29.369619,-96.86644
1068,1987-10-20,Sebastian,FL,27.78783,-80.48266
1069,1987-08-04,Newton,MS,32.317298,-89.14483
1070,1987-04-28,East Ellijay,GA,34.680011,-84.47154
1071,1987-10-01,Wood River,IL,38.860447,-90.09418
1072,1987-08-18,Tifton,GA,31.459666,-83.51083
1073,1987-04-28,Lampasas,TX,31.06639,-98.19192
1074,1987-11-17,Grenada,MS,33.77132,-89.80301
1075,1987-06-02,Clarksville,TN,36.58068,-87.4056
1076,1987-04-28,Macon,GA,32.878304,-83.59963
1077,1987-08-18,Tallahassee,FL,30.403146,-84.18841
1078,1987-06-30,Ballinger,TX,31.754011,-99.93695
1079,1987-10-01,New Smyrna Beach,FL,29.016897,-80.95736
1080,1987-10-20,Johnson City,TN,36.312633,-82.3802
1081,1987-09-01,Gainesville,FL,29.611545,-82.3941
1082,1987-11-17,Jacksonville,FL,30.159091,-81.63073
1083,1988-06-30,Jacksonville,FL,30.307439,-81.72044
1084,1987-12-31,Orlando,FL,28.494931,-81.28949
1085,1987-09-01,Port Richey,FL,28.30073,-82.69698
1086,1987-10-20,Saint Cloud,FL,28.24934,-81.28749
1087,1987-11-17,Stuart,FL,27.136003,-80.21686
1088,1987-12-31,Biloxi,MS,30.405831,-88.96219
1089,1987-08-04,Jasper,TN,35.065007,-85.61818
1090,1987-10-01,Jacksonville,FL,30.268572,-81.73987
1091,1987-10-01,Andalusia,AL,31.279043,-86.48699
1092,1987-11-03,Brownfield,TX,33.153528,-102.29568
1093,1988-03-08,Rantoul,IL,40.307065,-88.15575
1094,1987-10-01,Kansas City,MO,39.013905,-94.4591
1095,1987-10-01,Glenwood Springs,CO,39.533318,-107.32107
1096,1987-10-20,Mocksville,NC,35.920477,-80.57143
1097,1987-08-18,Aberdeen,NC,35.12416,-79.4415
1098,1987-11-17,Port Lavaca,TX,28.604717,-96.63023
1099,1987-08-04,Wichita,KS,37.667175,-97.31917
1100,1987-12-31,Hamilton,AL,34.149717,-88.00384
1101,1987-10-20,Wetumpka,AL,32.592889,-86.21902
1102,1987-12-31,Baker,LA,30.584787,-91.14763
1103,1987-10-20,Houston,TX,30.007886,-95.48532
1104,1987-10-20,Inverness,FL,28.865761,-82.35982
1105,1987-12-31,North Little Rock,AR,34.777238,-92.17913
1106,1987-06-30,Ferriday,LA,31.667978,-91.51382
1107,1987-06-30,Oakdale,LA,30.806617,-92.65224
1108,1987-06-30,Oak Grove,LA,32.887552,-91.4107
1109,1987-06-30,Rayville,LA,32.457301,-91.78754
1110,1987-09-01,Farmerville,LA,32.764289,-92.37657
1111,1987-11-17,Hartwell,GA,34.366948,-82.9201
1112,1987-08-18,Thomaston,GA,32.895794,-84.33084
1113,1987-11-03,London,KY,37.143828,-84.07839
1114,1988-02-02,Mountain View,AR,35.863114,-92.11108
1115,1987-11-03,Hohenwald,TN,35.535397,-87.54905
1116,1987-11-17,Duncan,OK,34.502833,-97.95185
1117,1987-12-31,Plano,TX,33.054671,-96.73506
1118,1987-11-17,Mesquite,TX,32.72203,-96.61634
1119,1987-11-03,Naples,FL,26.121546,-81.75251
1120,1987-11-03,Kansas City,MO,39.202654,-94.51816
1121,1987-08-04,Milledgeville,GA,33.083579,-83.23397
1122,1987-10-01,Toccoa,GA,34.561584,-83.31718
1123,1987-11-03,Seneca,SC,34.660345,-82.94557
1124,1987-10-01,Hartselle,AL,34.442184,-86.94027
1125,1987-11-17,Normal,IL,40.515485,-88.98629
1126,1987-11-17,Boerne,TX,29.851666,-98.72932
1127,1988-11-17,Wadesboro,NC,34.985423,-80.08543
1128,1988-03-01,Mansura,LA,31.067379,-92.05447
1129,1988-11-17,Austin,TX,30.451348,-97.76588
1130,1988-02-02,Laurens,SC,34.503167,-82.02271
1131,1988-02-02,Taylorsville,NC,35.914275,-81.2083
1132,1988-06-14,Asheboro,NC,35.686122,-79.82919
1133,1988-03-01,Albemarle,NC,35.351477,-80.19879
1134,1988-04-12,Defuniak Springs,FL,30.747244,-86.14665
1135,1988-03-01,Hartsville,SC,34.386728,-80.08256
1136,1988-06-02,Port Allen,LA,30.473536,-91.26324
1137,1988-04-12,Houston,TX,29.778526,-95.18118
1138,1988-02-02,Madison,WI,43.029497,-89.50531
1139,1988-02-02,Morehead,KY,38.19056,-83.4321
1140,1988-02-02,Mount Sterling,KY,38.061248,-83.92964
1141,1988-06-30,Greenfield,IN,39.799143,-85.78446
1142,1988-03-01,Scottsburg,IN,38.684426,-85.80304
1143,1988-04-12,Sandersville,GA,32.984529,-82.8375
1144,1988-05-03,York,SC,35.005981,-81.21176
1146,1988-06-30,Moncks Corner,SC,33.164225,-80.01039
1147,1988-02-02,Flippin,AR,36.263145,-92.57635
1148,1988-11-01,Wichita Falls,TX,33.859798,-98.54064
1149,1988-05-03,Thatcher,AZ,32.816055,-109.76487
1150,1988-05-03,College Station,TX,30.571905,-96.29882
1151,1987-11-17,Kansas City,KS,39.112204,-94.66643
1152,1988-03-08,Sioux Center,IA,43.075142,-96.19039
1153,1987-11-17,Macon,GA,32.730641,-83.6793
1154,1988-04-12,Fredericksburg,TX,30.279267,-98.88389
1155,1988-06-30,Lumberton,NC,34.620874,-78.98986
1156,1988-08-16,Mooresville,NC,35.571827,-80.89228
1157,1988-05-03,North Vernon,IN,39.011225,-85.63325
1158,1988-03-01,Birmingham,AL,33.558772,-86.89199
1159,1988-06-02,New Tazewell,TN,36.417235,-83.65241
1160,1988-06-30,Aurora,IN,39.060204,-84.93094
1161,1988-06-30,Saint Charles,MO,38.762715,-90.53903
1162,1988-05-03,Washington,IN,38.658196,-87.17619
1163,1988-03-01,New Orleans,LA,29.938155,-90.03667
1164,1988-05-03,Columbia,SC,34.075611,-81.17611
1165,1988-09-01,Radcliff,KY,37.828459,-85.93888
1166,1988-06-02,Elizabethtown,NC,34.647611,-78.586429999999993
1167,1988-08-16,Kenosha,WI,42.601842,-87.87617
1168,1988-03-01,Columbia,MS,31.255242,-89.79264
1169,1988-05-03,Springhill,LA,32.994597,-93.45992
1170,1988-05-03,Louisville,KY,38.096056,-85.85994
1171,1988-06-30,Sarasota,FL,27.407657,-82.52923
1172,1988-08-16,Jacksonville Beach,FL,30.284641,-81.39844
1173,1988-02-02,Jacksonville,FL,30.28374,-81.58359
1174,1988-04-12,Thomasville,AL,31.936003,-87.77013
1175,1988-11-01,Flagstaff,AZ,35.279872,-111.72256
1176,1988-04-12,Stoughton,WI,42.926473,-89.22432
1177,1988-10-03,Ballwin,MO,38.601403,-90.55209
1178,1988-03-01,Bedford,TX,32.851678,-97.13849
1179,1988-05-03,Asheville,NC,35.54179,-82.52307
1180,1988-03-01,Greensburg,IN,39.333248,-85.47579
1181,1988-06-02,Marietta,GA,33.932052,-84.54746
1182,1988-03-01,Palm Coast,FL,29.499591,-81.22328
1183,1988-03-01,West Columbia,SC,33.990952,-81.08956
1184,1988-05-03,Stone Mountain,GA,33.817438,-84.13167
1185,1988-06-02,Austin,TX,30.374654,-97.67621
1186,1988-06-30,Liberty,TX,30.066734,-94.76595
1187,1989-04-03,Iola,KS,37.926666,-95.39695
1188,1988-08-16,Saint Ann,MO,38.727184,-90.38551
1189,1988-09-01,Barbourville,KY,36.853913,-83.88501
1190,1988-05-03,Berea,KY,37.575568,-84.27767
1191,1989-06-29,Hillsborough,NC,36.079726,-79.09459
1192,1988-08-16,Magee,MS,31.880229,-89.72086
1193,1988-11-17,Monroe,LA,32.519393,-92.10755
1194,1988-08-16,Oak Ridge,TN,35.992691,-84.27044
1195,1988-11-01,Waveland,MS,30.289646,-89.38349
1196,1989-02-02,New Roads,LA,30.700337,-91.44032
1197,1988-09-01,Rocky Mount,NC,35.973773,-77.82694
1198,1988-10-03,San Antonio,TX,29.649797,-98.50406
1199,1988-04-07,Avon,CO,39.63298,-106.51534
1200,1988-10-03,Colorado Springs,CO,38.851493,-104.77856
1201,1988-08-16,Gardendale,AL,33.67933,-86.8206
1202,1988-08-16,Wisconsin Rapids,WI,44.373468,-89.78761
1203,1988-06-02,Sun City Center,FL,27.713353,-82.35965
1204,1988-09-01,Lake Charles,LA,30.165907,-93.24905
1205,1988-11-01,Macclenny,FL,30.267664,-82.12457
1206,1988-05-03,Baton Rouge,LA,30.411391,-91.1497
1207,1988-05-03,Panama City,FL,30.188585,-85.56392
1208,1988-05-03,Wheat Ridge,CO,39.774341,-105.10036
1209,1989-02-02,Lincolnton,NC,35.473447,-81.24094
1210,1988-10-03,Nicholasville,KY,37.883886,-84.571
1211,1988-08-16,Harvard,IL,42.424338,-88.61431
1212,1988-09-01,Saraland,AL,30.831636,-88.09386
1213,1988-10-03,Brooksville,FL,28.555346,-82.53601
1214,1989-02-02,Colby,KS,39.394701,-101.04485
1215,1988-11-01,Calhoun,GA,34.4966,-84.93798
1216,1988-10-03,Carrollton,TX,32.960374,-96.89163
1217,1988-11-01,Franklin,NC,35.185018,-83.39032
1218,1988-10-11,Casa Grande,AZ,32.878138,-111.73499
1219,1988-11-01,Jacksonville,FL,30.449096,-81.65651
1220,1989-04-03,Orlando,FL,28.52493,-81.439940000000007
1221,1988-10-03,Wichita,KS,37.67129,-97.4372
1222,1988-11-17,Pensacola,FL,30.526345,-87.27734
1223,1988-11-17,Tallahassee,FL,30.554434,-84.25979
1224,1988-06-02,Pensacola,FL,30.48787,-87.18937
1225,1988-06-30,Orange Park,FL,30.160965,-81.72916
1226,1988-11-17,Ashland City,TN,36.299293,-87.06949
1227,1988-11-10,Augusta,GA,33.512541,-82.09491
1228,1988-12-31,Round Lake,IL,42.366253,-88.09647
1229,1989-04-03,Birmingham,AL,33.356981,-86.81577
1230,1988-11-01,Show Low,AZ,34.271427,-110.03676
1231,1988-11-17,Denver,CO,39.859585,-104.95943
1232,1988-10-03,Belton,TX,31.073329,-97.48642
1233,1988-09-01,Paintsville,KY,37.823275,-82.78167
1234,1988-10-11,Monticello,KY,36.801922,-84.82841
1235,1988-10-03,San Antonio,TX,29.499454,-98.57166
1236,1988-08-16,Goldsboro,NC,35.377069,-77.92463
1237,1988-08-16,Erwin,NC,35.322849,-78.68964
1238,1988-12-31,Fayetteville,NC,35.084163,-78.953
1239,1989-02-02,Urbana,OH,40.112531,-83.76633
1240,1988-10-03,Sierra Vista,AZ,31.562546,-110.24288
1241,1989-06-29,Davenport,IA,41.565433,-90.53924
1242,1988-11-01,Hendersonville,NC,35.353837,-82.41625
1243,1989-02-02,Martinsville,VA,36.696264,-79.86879
1244,1988-11-01,Taylors,SC,34.935636,-82.32238
1245,1989-02-02,Lakeland,FL,28.128494,-81.95625
1246,1988-11-17,Louisville,KY,38.141638,-85.68218
1247,1989-04-03,Hazard,KY,37.274854,-83.19061
1248,1989-04-03,Memphis,TN,35.035466,-89.80329
1249,1989-02-02,San Angelo,TX,31.468911,-100.4387
1252,1989-02-02,Lone Tree,CO,39.541571,-104.92152
1253,1988-12-31,Austin,TX,30.246309,-97.76087
1254,1988-12-31,Waco,TX,31.609834,-97.08821
1255,1989-05-02,Laurinburg,NC,34.779227,-79.45745
1256,1989-04-03,Joliet,IL,41.50798,-88.10553
1257,1989-02-02,Stamford,TX,32.943145,-99.81595
1259,1989-02-02,Corbin,KY,36.942035,-84.10685
1260,1989-02-02,Lucedale,MS,30.873353,-88.58869
1261,1988-12-31,Fayetteville,NC,35.134301,-78.89411
1262,1988-11-17,Rushville,IN,39.614803,-85.43834
1263,1988-11-17,Evansville,IN,37.975476,-87.47506
1264,1988-11-17,Bellefontaine,OH,40.365923,-83.75816
1265,1989-06-29,Saint Louis,MO,38.74785,-90.30258
1266,1988-11-01,Baton Rouge,LA,30.425791,-91.03815
1267,1989-02-02,Sun Prairie,WI,43.189953,-89.2253
1268,1989-02-02,Whiteville,NC,34.312063,-78.70773
1269,1988-11-17,Louisville,KY,38.214982,-85.62207
1270,1988-11-01,North Augusta,SC,33.517435,-81.94945
1271,1989-02-02,Meridian,MS,32.358891,-88.7494
1272,1989-04-03,Snyder,TX,32.760229,-100.95344
1273,1989-04-03,Fountain,CO,38.674013,-104.69627
1274,1989-04-03,Whitewater,WI,42.818747,-88.73279
1275,1989-04-03,Lebanon,IN,40.047966,-86.46592
1276,1989-08-01,Sheboygan,WI,43.736145,-87.72893
1277,1989-02-02,Black River Falls,WI,44.277231,-90.80066
1278,1988-11-01,Perry,OK,36.308588,-97.28809
1279,1989-05-02,Houston,TX,29.885451,-95.39552
1280,1989-06-01,Grand Junction,CO,39.072831,-108.55
1281,1989-02-02,Spartanburg,SC,34.982424,-81.85729
1282,1988-11-01,Concordia,KS,39.568803,-97.64627
1283,1989-02-02,Starke,FL,29.937512,-82.11706
1284,1989-04-03,Phenix City,AL,32.492304,-85.01943
1285,1989-04-03,Ottumwa,IA,41.023872,-92.41741
1286,1989-02-02,Columbia,SC,33.968011,-80.93844
1287,1989-04-03,Burlington,NC,36.072336,-79.4698
1288,1989-04-03,Roxboro,NC,36.414739,-78.97375
1289,1989-02-02,Wilmington,OH,39.463476,-83.84446
1290,1989-05-02,Wilkesboro,NC,36.136991,-81.17462
1291,1989-06-01,Tucson,AZ,32.213291,-110.82559
1292,1989-04-03,Christiansburg,VA,37.136013,-80.41222
1293,1989-04-03,Augusta,GA,33.387089,-82.01237
1294,1989-04-03,Marion,IN,40.58119,-85.66324
1295,1989-02-02,Madill,OK,34.092658,-96.74851
1296,1989-02-02,San Benito,TX,26.111261,-97.63519
1297,1989-05-02,Chiefland,FL,29.453178,-82.86837
1298,1989-08-01,Jacksonville,NC,34.781212,-77.3756
1299,1989-02-02,Cottonwood,AZ,34.723788,-112.01002
1300,1989-02-02,New Bern,NC,35.091472,-77.09936
1301,1989-06-29,Roanoke,VA,37.236753,-79.93549
1302,1989-08-01,Norton,VA,36.942047,-82.63138
1303,1989-08-01,Georgetown,TX,30.643058,-97.64713
1304,1990-11-27,Warsaw,IN,41.281518,-85.81927
1305,1989-06-29,Janesville,WI,42.69146,-89.04277
1306,1989-02-02,Alamogordo,NM,32.839921,-105.97561
1307,1989-05-02,Bradley,IL,41.144256,-87.86239
1308,1989-10-02,Littleton,CO,39.616114,-105.07393
1309,1989-06-01,Salem,VA,37.288807,-80.07821
1310,1989-05-02,Terre Haute,IN,39.393237,-87.3977
1311,1989-10-31,Columbus,GA,32.53554,-84.92583
1312,1989-06-29,Spring Lake,NC,35.211913,-78.97499
1313,1989-08-31,San Antonio,TX,29.363335,-98.49049
1314,1989-06-01,Buford,GA,34.089419,-83.94701
1315,1989-12-30,Cheyenne,WY,41.275932,-104.88279
1316,1989-06-01,Sturgeon Bay,WI,44.844133,-87.38044
1317,1990-10-01,Asheville,NC,35.599363,-82.50007
1318,1989-08-31,Knoxville,TN,36.008048,-83.97962
1319,1989-08-31,Knoxville,TN,36.046598,-83.92511
1320,1990-01-31,Knoxville,TN,35.923517,-83.89042
1321,1989-08-31,Smithfield,NC,35.506459,-78.34446
1322,1989-12-30,Lexington,NC,35.775789,-80.23174
1323,1992-09-01,Peoria,IL,40.709237,-89.63633
1324,1989-06-01,Nogales,AZ,31.37737,-110.9264
1325,1989-06-01,Tucson,AZ,32.260316,-110.98534
1326,1989-06-01,Grand Island,NE,40.916866,-98.38749
1327,1989-04-03,Madison,IN,38.787175,-85.38031
1328,1989-06-01,Winslow,AZ,35.258309,-110.53128
1329,1989-11-16,Logansport,IN,40.754787,-86.36684
1330,1989-04-03,Lima,OH,40.739517,-84.14468
1331,1989-04-03,Sidney,OH,40.284855,-84.15974
1332,1989-08-31,South Sioux City,NE,42.467095,-96.4187
1333,1989-08-01,Van Wert,OH,40.874092,-84.57871
1334,1989-08-31,Claypool,AZ,33.415409,-110.814893
1335,1989-08-01,Lexington,VA,37.794344,-79.47658
1336,1989-08-01,Marion,VA,36.828526,-81.53045
1337,1989-04-03,Elkin,NC,36.283497,-80.84586
1338,1989-06-29,Columbus,GA,32.479492,-84.90942
1339,1989-06-29,Columbia,SC,34.084069,-80.93286
1340,1989-06-29,Lithonia,GA,33.676358,-84.153809999999993
1341,1989-10-31,Evansville,IN,37.966292,-87.63664
1342,1989-06-01,Kenner,LA,30.022853,-90.25133
1344,1989-12-30,Staunton,VA,38.146216,-79.07625
1345,1989-10-02,South Boston,VA,36.701855,-78.92008
1346,1989-10-31,Ocean Springs,MS,30.403286,-88.77565
1347,1989-08-31,San Antonio,TX,29.48618,-98.4568
1348,1990-04-30,Wilmington,NC,34.152021,-77.91346
1349,1989-08-31,Fort Lauderdale,FL,26.179495,-80.27183
1350,1991-11-05,Lynchburg,VA,37.362109,-79.21525
1351,1989-09-16,Beckley,WV,37.79064,-81.19958
1352,1989-11-16,Wallace,NC,34.738793,-77.97788
1353,1989-10-02,New Orleans,LA,29.952605,-90.20536
1354,1989-11-16,Washington,NC,35.560439,-77.03459
1355,1989-10-02,Morehead City,NC,34.729839,-76.75219
1356,1989-10-02,Martinsville,IN,39.442774,-86.41337
1357,1989-10-31,Silver City,NM,32.729758,-108.30206
1358,1989-06-29,Walterboro,SC,32.89989,-80.67195
1359,1989-08-31,Charleston,SC,32.918757,-80.0228
1360,1990-01-31,Oak Hill,WV,37.982775,-81.14533
1361,1989-10-31,Sioux City,IA,42.466292,-96.35291
1362,1989-11-16,Destin,FL,30.391795,-86.4338
1363,1989-10-31,Madison,GA,33.588436,-83.47936
1364,1990-01-31,Lake Havasu City,AZ,34.483582,-114.33694
1365,1989-10-31,Hudson,WI,44.978518,-92.71996
1366,1989-08-01,Merrill,WI,45.181311,-89.70469
1367,1989-10-02,Warner Robins,GA,32.638316,-83.64332
1368,1989-10-02,West Union,OH,38.795145,-83.54335
1369,1989-11-16,Payson,AZ,34.243578,-111.28137
1370,1990-01-31,Bullhead City,AZ,35.097719,-114.59734
1371,1989-06-29,Columbus,IN,39.185341,-85.9456
1372,1990-01-31,Raleigh,NC,35.716105,-78.65734
1373,1990-01-31,Lilburn,GA,33.872371,-84.11655
1374,1989-10-31,Altamonte Springs,FL,28.663913,-81.41112
1375,1989-11-16,Marianna,FL,30.675635,-85.23283
1376,1990-01-31,Hendersonville,TN,36.311047,-86.61173
1377,1989-12-30,Mchenry,IL,42.348406,-88.24769
1378,1989-10-31,Goshen,IN,41.567559,-85.84885
1379,1990-01-31,Greenville,NC,35.626653,-77.37896
1380,1989-12-30,Las Vegas,NM,35.594103,-105.08142
1381,1991-07-02,Apache Junction,AZ,33.416083,-111.5762
1382,1989-10-02,Greenwood,SC,34.225872,-82.15614
1383,1989-11-16,Beaufort,SC,32.445712,-80.74845
1384,1990-01-31,La Junta,CO,37.995879,-103.54001
1385,1990-01-31,Gastonia,NC,35.263287,-81.15312
1386,1990-12-31,Pontiac,IL,40.884053,-88.63376
1387,1990-04-02,Pompano Beach,FL,26.3007,-80.22727
1388,1989-12-30,Kendallville,IN,41.449897,-85.26765
1389,1989-12-30,Boone,IA,42.074515,-93.87437
1390,1990-06-27,Pinellas Park,FL,27.839802,-82.71094
1391,1990-02-24,Daytona Beach,FL,29.153239,-81.02229
1392,1989-08-01,Wilmington,NC,34.221512,-77.88452
1393,1989-10-31,Oskaloosa,IA,41.281669,-92.65534
1394,1989-12-30,Milwaukee,WI,42.966681,-88.03798
1395,1990-10-01,Centralia,IL,38.523736,-89.1257
1396,1989-12-30,Baraboo,WI,43.483503,-89.74753
1397,1990-01-31,Albuquerque,NM,35.196446,-106.67336
1398,1990-01-31,Lake Worth,FL,26.609226,-80.12874
1399,1989-10-31,Bedford,VA,37.339184,-79.52839
1400,1990-06-27,Athens,GA,33.945619,-83.41732
1401,1990-10-29,Naperville,IL,41.764779,-88.14579
1403,1990-01-31,Cornelia,GA,34.514215,-83.54118
1404,1990-01-31,Lake Zurich,IL,42.199957,-88.05859
1405,1990-08-01,Bay City,TX,28.945269,-95.9357
1406,1990-01-31,Winchester,VA,39.179076,-78.16653
1407,1989-12-30,Lebanon,OH,39.440152,-84.22175
1408,1990-01-31,Tallahassee,FL,30.446766,-84.32394
1409,1990-04-02,Houston,TX,29.802473,-95.5618
1410,1990-04-02,Troy,OH,40.036525,-84.20629
1411,1990-01-31,Green Valley,AZ,31.857504,-111.00904
1412,1990-04-02,Laramie,WY,41.232815,-105.75364
1413,1990-04-30,Crystal Lake,IL,42.226623,-88.33066
1414,1990-01-31,Belen,NM,34.646779,-106.7648
1415,1990-01-31,Spirit Lake,IA,43.428983,-95.10892
1416,1990-01-31,Napoleon,OH,41.388278,-84.12511
1417,1991-11-04,Prescott,AZ,34.589477,-112.44726
1418,1990-01-31,O Fallon,IL,38.589849,-89.91207
1419,1990-01-31,Fort Wayne,IN,41.150677,-85.12181
1420,1990-01-31,Streamwood,IL,42.023977,-88.17657
1421,1990-01-31,Washington,IL,40.701037,-89.44294
1422,1990-01-31,Alma,MI,43.377113,-84.66256
1423,1990-04-02,Saint Johns,MI,42.998998,-84.57704
1424,1994-03-01,Colonial Heights,VA,37.265403,-77.40438
1425,1990-01-31,Columbia City,IN,41.166034,-85.48313
1426,1989-11-16,Ashland,KY,38.473961,-82.64532
1427,1989-10-31,Circleville,OH,39.598236,-82.94285
1428,1989-12-30,Mount Pleasant,MI,43.60616,-84.78306
1429,1990-01-31,Fremont,OH,41.35307,-83.11217
1430,1989-12-30,Oshkosh,WI,44.018871,-88.61324
1431,1990-01-31,Keokuk,IA,40.409641,-91.40001
1432,1990-04-02,Cadillac,MI,44.243788,-85.46006
1433,1990-01-31,Celina,OH,40.542778,-84.58232
1434,1990-01-31,Colorado Springs,CO,38.837542,-104.83632
1435,1990-01-31,Creston,IA,41.070905,-94.38448
1436,1990-05-30,West Palm Beach,FL,26.659344,-80.12704
1437,1990-04-02,Guymon,OK,36.739447,-101.48851
1438,1990-08-01,Cedar City,UT,37.75164,-113.16557
1439,1990-05-30,Washington,UT,37.144146,-113.49671
1440,1990-05-30,Tooele,UT,40.560528,-112.29455
1441,1990-04-02,Cincinnati,OH,39.278295,-84.33049
1442,1991-01-30,Page,AZ,36.726377,-111.4284
1443,1990-04-02,Cincinnati,OH,39.075329,-84.27311
1444,1990-02-24,Jacksonville,FL,30.333022,-81.586
1445,1990-06-27,Port Clinton,OH,41.512855,-82.92948
1446,1990-08-01,Rice Lake,WI,45.517226,-91.72638
1447,1991-10-01,Superior,WI,46.684273,-92.09474
1448,1990-05-30,Ashland,OH,40.867016,-82.31514
1449,1990-08-01,Manitowoc,WI,44.096194,-87.68919
1450,1990-06-27,Ripley,WV,38.803814,-81.70763
1451,1990-01-31,Beardstown,IL,40.005505,-90.42314
1452,1990-01-31,Charlotte,NC,35.107804,-80.82139
1453,1990-01-31,Green Bay,WI,44.530892,-88.04482
1454,1990-02-24,Quincy,IL,39.929597,-91.37415
1455,1990-05-30,Fort Worth,TX,32.762631,-97.17527
1456,1990-08-01,Evanston,WY,41.267546,-110.90607
1457,1990-06-27,Riverton,WY,43.013826,-108.34879
1458,1990-12-03,Fort Oglethorpe,GA,34.948979,-85.25212
1459,1990-05-30,Indianapolis,IN,39.678495,-86.12973
1460,1990-05-30,Hastings,NE,40.589299,-98.38131
1461,1990-08-01,Rock Springs,WY,41.594542,-109.16304
1462,1990-04-30,Greenville,AL,31.8007,-86.60591
1463,1990-08-01,Xenia,OH,39.682836,-83.92144
1464,1990-08-01,Charlotte,NC,35.124032,-80.93954
1465,1990-10-29,Danville,VA,36.622638,-79.39998
1466,1990-10-01,Jacksboro,TN,36.326509,-84.17277
1467,1990-10-01,Jamestown,TN,36.409385,-84.93393
1468,1990-08-01,Batesville,MS,34.309659,-89.963
1469,1990-06-27,Chattanooga,TN,35.028574,-85.15939
1470,1990-06-27,Willmar,MN,45.118846,-95.04504
1471,1990-08-01,New London,WI,44.394143,-88.75521
1472,1990-11-14,Hastings,MN,44.726517,-92.86147
1473,1991-11-05,Mankato,MN,44.15644,-93.99388
1474,1990-12-31,Yuma,AZ,32.704499,-114.64644
1475,1990-05-30,Washington,IA,41.300042,-91.69743
1476,1990-06-27,Clarksville,IN,38.303945,-85.76787
1477,1990-10-29,Summersville,WV,38.30696,-80.87329
1478,1991-09-11,South Point,OH,38.438617,-82.55774
1479,1990-09-04,Valparaiso,IN,41.47339,-87.03165
1480,1991-10-01,Winchester,IN,40.173141,-84.97922
1481,1990-10-29,Birmingham,AL,33.468306,-86.80814
1482,1990-09-04,Tampa,FL,28.005497,-82.54936
1483,1990-08-01,Yankton,SD,42.888538,-97.40958
1484,1990-02-20,Kansas City,MO,38.969806,-94.47256
1485,1991-01-30,Gillette,WY,43.939968,-105.52445
1486,1990-06-27,Farmville,VA,37.307946,-78.40144
1487,1990-09-04,Michigan City,IN,41.707539,-86.87902
1488,1990-01-31,Douglasville,GA,33.769636,-84.74967
1489,1990-08-01,Vernon Hills,IL,42.229856,-87.96779
1490,1990-08-01,Rockford,IL,42.254087,-89.01776
1491,1990-08-01,Indianola,IA,41.354068,-93.57506
1492,1990-08-01,Aurora,CO,39.698387,-104.83956
1493,1990-08-01,Monroeville,AL,31.509039,-87.32416
1494,1990-10-01,Corpus Christi,TX,27.733058,-97.38542
1495,1990-08-01,Dayton,OH,39.840308,-84.12227
1496,1990-08-01,Waterloo,IA,42.475886,-92.33578
1497,1990-10-01,Matteson,IL,41.503468,-87.73695
1498,1991-07-02,Greensboro,NC,36.116854,-79.88291
1499,1995-08-16,Lewisburg,WV,37.80848,-80.44493
1500,1990-08-01,Watertown,SD,44.916657,-97.11346
1501,1990-11-14,Tampa,FL,28.071502,-82.49392
1502,1990-10-29,Roanoke Rapids,NC,36.448592,-77.67144
1503,1990-04-02,Dayton,OH,39.644609,-84.16931
1504,1990-04-02,Miamisburg,OH,39.631525,-84.27074
1505,1990-10-01,Pikeville,KY,37.478169,-82.5189
1506,1990-08-01,Manchester,IA,42.484297,-91.45231
1507,1990-08-01,Wichita,KS,37.750904,-97.23115
1508,1990-10-29,Sheridan,WY,44.801249,-106.96782
1509,1990-08-01,Maquoketa,IA,42.087769,-90.67352
1510,1990-09-04,Florence,KY,38.983853,-84.64401
1511,1990-10-01,Hollywood,FL,25.990494,-80.27326
1512,1990-09-04,Chandler,AZ,33.328951000000004,-111.8735
1513,1991-01-30,Palm Harbor,FL,28.081325,-82.72751
1514,1990-10-29,Arnold,MO,38.42727,-90.38515
1515,1990-10-01,Menomonee Falls,WI,43.151183,-88.11034
1516,1990-08-01,Borger,TX,35.665899,-101.40666
1517,1991-01-30,Pompano Beach,FL,26.279108,-80.11319
1518,1990-10-01,Indianapolis,IN,39.897548,-86.22546
1519,1990-08-01,Jackson,OH,39.034226,-82.63678
1520,1990-10-01,Aberdeen,SD,45.46932,-98.49646
1521,1990-12-03,Cincinnati,OH,39.258124,-84.58733
1522,1990-10-29,Elkins,WV,38.920042,-79.8446
1523,1990-12-03,Glen Allen,VA,37.661647,-77.52632
1524,1993-02-02,Chester,VA,37.350999,-77.43959
1525,1990-12-03,Mechanicsville,VA,37.605641,-77.31536
1526,1990-04-02,Storm Lake,IA,42.646924,-95.1807
1527,1990-06-27,Elizabeth City,NC,36.293192,-76.23692
1528,1990-10-29,Cedar Rapids,IA,42.021016,-91.65231
1529,1990-10-01,York,PA,39.976898,-76.67785
1530,1990-12-31,Cleveland,MS,33.749149,-90.71329
1531,1991-02-27,Dundee,IL,42.101502,-88.28891
1532,1990-09-04,Glendale,AZ,33.624546,-112.1767
1533,1990-12-03,Peoria,AZ,33.573602,-112.23984
1534,1990-12-03,Bismarck,ND,46.768617,-100.75381
1535,1990-10-29,Sioux Falls,SD,43.514392,-96.80375
1536,1990-10-29,Saint Petersburg,FL,27.815953,-82.72865
1537,1991-01-30,Gettysburg,PA,39.827337,-77.22904
1538,1990-10-29,Brookings,SD,44.305418,-96.7906
1539,1990-12-03,Mansfield,OH,40.766056,-82.56749
1540,1990-10-29,South Haven,MI,42.403593,-86.24912
1541,1991-02-27,West Palm Beach,FL,26.719596,-80.22077
1542,1990-08-01,Gaylord,MI,44.989608,-84.67492
1543,1990-10-01,Spearfish,SD,44.48837,-103.87853
1544,1990-12-03,Clarksburg,WV,39.281289,-80.34348
1545,1990-12-31,Grand Forks,ND,47.899217,-97.05896
1546,1990-10-29,Iowa Falls,IA,42.515426,-93.26217
1547,1991-01-30,Lafayette,IN,40.41836,-86.81847
1548,1990-12-03,Watseka,IL,40.784447,-87.74051
1549,1991-09-11,Phoenix,AZ,33.472492,-112.1875
1550,1990-10-01,Gunnison,CO,38.464132,-106.95776
1551,1991-01-30,Franklin,WI,42.896145,-88.00891
1552,1990-12-03,Salisbury,NC,35.679639,-80.46645
1553,1991-01-30,Bloomingdale,IL,41.94954,-88.08256
1554,1991-01-30,Stockton,CA,38.038906,-121.24213
1555,1990-12-03,El Centro,CA,32.783359,-115.57746
1556,1991-10-01,Tinley Park,IL,41.5738,-87.80389
1557,1990-12-03,Fishers,IN,39.95645,-86.00872
1558,1990-12-31,Eden,NC,36.505996,-79.74935
1559,1990-10-29,Las Vegas,NV,36.172744,-115.05795
1560,1991-01-30,Las Vegas,NV,36.121972,-115.0903
1561,1991-12-31,Memphis,TN,35.219882,-89.92588
1562,1990-11-14,Minneapolis,MN,45.186232,-93.29635
1563,1990-08-01,Lancaster,CA,34.728857,-118.32683
1564,1990-08-01,Portsmouth,OH,38.762824,-82.94294
1565,1990-12-03,Williston,ND,48.20496,-103.71908
1566,1990-10-29,Goshen,IN,41.567559,-85.84885
1567,1990-11-14,Dickinson,ND,46.878057,-102.8041
1568,1991-11-05,Hermitage,PA,41.232543,-80.45797
1569,1991-01-30,Maysville,KY,38.624534,-83.76561
1570,1991-01-30,Auburn,IN,41.352638,-85.04792
1571,1990-12-31,Mukwonago,WI,42.872477,-88.34409
1572,1990-12-03,Vernal,UT,40.514262,-109.54223
1573,1990-12-31,Price,UT,39.578473,-110.78678
1574,1991-01-30,Bakersfield,CA,35.344209,-119.02225
1575,1991-01-30,Oroville,CA,39.558586,-121.58923
1576,1991-01-30,Schererville,IN,41.492085,-87.4519
1577,1990-12-31,Buffalo,MN,45.175558,-93.85441
1578,1990-09-04,Roswell,GA,34.032532,-84.31774
1579,1991-01-30,Oxford,NC,36.340501,-78.61595
1580,1991-10-01,Indianapolis,IN,39.795025,-85.97356
1581,1990-12-03,Fargo,ND,46.860864,-96.81602
1583,1991-01-30,Madera,CA,36.914819,-120.15817
1584,1991-01-30,Las Vegas,NV,36.113211,-115.21849
1585,1990-12-31,North Platte,NE,41.129363,-100.77502
1586,1990-10-29,Austell,GA,33.828061,-84.62593
1587,1990-10-29,Modesto,CA,37.671778,-121.01249
1588,1991-01-30,Victorville,CA,34.489466,-117.35321
1589,1991-01-30,Delray Beach,FL,26.458152,-80.1356
1590,1992-03-03,Hialeah,FL,25.938687,-80.3182
1591,1991-11-05,Harrisburg,PA,40.264389,-76.80298
1592,1991-01-30,Bad Axe,MI,43.803691,-83.00181
1593,1990-12-31,Coldwater,MI,41.912776,-85.0142
1594,1991-01-30,Heath,OH,40.017096,-82.34322
1595,1990-11-14,Marysville,OH,40.255973,-83.36391
1596,1990-12-03,Bolingbrook,IL,41.703097,-88.07462
1597,1990-09-04,Tulsa,OK,36.04309,-95.88417
1598,1991-04-02,Phoenix,AZ,33.62414,-112.00416
1599,1991-02-27,Shawnee Mission,KS,38.924739,-94.70473
1600,1991-01-30,Ridgecrest,CA,35.599177,-117.68065
1601,1991-01-30,Carmel,IN,39.970241,-86.15416
1602,1991-01-30,Springfield,IL,39.7778,-89.67982
1603,1990-12-31,Chester,SC,34.720597,-81.21429
1604,1991-01-30,Rapid City,SD,44.085288,-103.21335
1605,1990-10-01,Pensacola,FL,30.408807,-87.31919
1606,1990-11-14,Hixson,TN,35.167987,-85.21158
1607,1991-07-02,Lewistown,PA,40.595359,-77.5774
1608,1991-01-30,Red Bluff,CA,40.183837,-122.24074
1609,1991-01-30,Grand Rapids,MN,47.243062,-93.52599
1610,1991-07-02,Rochester,NY,43.214613,-77.70626
1611,1991-06-04,Fort Gratiot,MI,43.088742,-82.48614
1612,1991-11-05,Tucson,AZ,32.126223,-111.04599
1613,1991-09-11,High Point,NC,36.017647,-80.00628
1614,1990-12-31,Durham,NC,36.034561,-78.86892
1615,1991-07-31,Pittsburg,CA,38.017917,-121.90502
1616,1991-11-05,Susanville,CA,40.474951,-120.67685
1617,1991-12-31,Casper,WY,42.844915,-106.27255
1618,1991-09-11,Merrillville,IN,41.487369,-87.34024
1619,1991-04-02,Rochester,NY,43.087613,-77.6352
1620,1990-11-14,Brewton,AL,31.129008,-87.10173
1621,1991-01-30,Centerville,IA,40.730159,-92.88994
1622,1991-06-04,Tiffin,OH,41.12071,-83.17658
1623,1992-02-04,Wilkes Barre,PA,41.236331,-75.87254
1624,1991-07-31,Bakersfield,CA,35.396411,-118.92268
1625,1991-01-30,Le Mars,IA,42.79728,-96.17167
1626,1991-04-02,Oklahoma City,OK,35.612359,-97.57152
1627,1991-04-02,Dilworth,MN,46.878062,-96.70242
1628,1991-01-30,Sandusky,OH,41.42646,-82.71083
1629,1991-04-02,Brazil,IN,39.52503,-87.12738
1630,1992-02-04,Yreka,CA,41.749249,-122.64479
1631,1991-04-02,Hampton,VA,37.050946,-76.40711
1632,1991-04-02,Alexandria,MN,45.88645,-95.38287
1633,1991-04-30,Saint Cloud,MN,45.526066,-94.20649
1634,1991-07-31,Little Falls,MN,45.994029,-94.37183
1635,1991-07-31,Waukesha,WI,43.015289,-88.20924
1636,1991-04-02,Minot,ND,48.19983,-101.28579
1637,1991-04-02,Omaha,NE,41.348081,-96.04609
1638,1990-11-14,Eufaula,AL,31.876168,-85.17362
1639,1991-01-30,Rochester,IN,41.073678,-86.23521
1640,1991-01-30,State College,PA,40.802661,-77.89936
1641,1991-01-30,Williamston,NC,35.824061,-77.08093
1642,1991-01-30,Charlotte,MI,42.580076,-84.8228
1643,1991-09-11,Fond Du Lac,WI,43.769889,-88.4281
1644,1991-12-31,Lewisburg,PA,40.965348,-76.9139
1645,1991-07-02,Hanford,CA,36.327063,-119.6451
1646,1991-07-31,Mesa,AZ,33.400306,-111.72452
1647,1991-04-02,Decatur,IN,40.831351,-84.93704
1648,1991-07-02,Carson City,NV,39.091507,-119.79896
1649,1991-04-02,Jamestown,ND,46.906983,-98.72826
1650,1991-01-30,Saukville,WI,43.394676,-87.95887
1651,1991-10-01,Vallejo,CA,38.152068,-122.25074
1652,1991-04-02,Pulaski,VA,37.053297,-80.7728
1653,1991-07-31,Weston,WV,39.04101,-80.47731
1654,1991-07-02,Baxter,MN,46.347175,-94.27017
1655,1991-12-31,Crawfordsville,IN,40.034554,-86.89143
1656,1991-10-01,Meadville,PA,41.637502,-80.15214
1657,1991-07-02,Faribault,MN,44.29478,-93.28732
1658,1991-06-04,Thomson,GA,33.490536,-82.5028
1659,1991-07-02,Brighton,CO,39.973251,-104.82407
1660,1991-07-31,Palmdale,CA,34.606146,-118.18495
1661,1991-02-27,Kinston,NC,35.264739,-77.62481
1662,1991-07-02,Statesville,NC,35.840579,-80.87988
1663,1991-02-27,Clyde,NC,35.60089,-82.93536
1664,1993-07-27,Wilson,NC,35.715315,-77.91989
1665,1991-06-04,Muncie,IN,40.215398,-85.43636
1666,1991-06-04,Charlotte,NC,35.222406,-80.79221
1667,1991-10-01,Wabash,IN,40.795068,-85.82953
1668,1991-10-01,Gurnee,IL,42.375821,-87.93517
1669,1991-07-31,Eau Claire,WI,44.780427,-91.48065
1670,1991-09-11,Reading,PA,40.335023,-75.97099
1671,1991-07-31,La Vista,NE,41.183458,-96.05318
1672,1991-07-31,Ashland,WI,46.577191,-90.89707
1673,1992-06-02,Canandaigua,NY,42.85297,-77.29466
1674,1991-12-31,Hagerstown,MD,39.633946,-77.73025
1675,1991-07-02,Lebanon,KY,37.565894,-85.25148
1676,1991-09-11,Tell City,IN,37.971622000000004,-86.73903
1677,2002-09-18,New Hartford,NY,43.067169,-75.28767
1678,1991-09-11,Delafield,WI,43.05348,-88.39844
1679,1991-09-11,Onalaska,WI,43.899664,-91.22963
1680,1992-02-04,Miami,FL,25.662292,-80.40947
1681,1991-11-05,Mount Prospect,IL,42.065427,-87.93621
1682,1991-07-31,Chesapeake,VA,36.826239,-76.41524
1683,1991-10-01,Shenandoah,IA,40.750107,-95.36514
1684,1991-11-05,Everett,PA,40.003997,-78.36456
1685,1991-12-31,Pierre,SD,44.425356,-100.29145
1686,1991-10-01,Salt Lake City,UT,40.659514,-111.92226
1687,1991-10-01,Suffolk,VA,36.735893,-76.59656
1688,1991-07-02,Virginia Beach,VA,36.839209,-76.09333
1689,1991-11-05,Aurora,CO,39.623896,-104.77723
1690,1991-11-05,Decatur,IL,39.878041,-88.95637
1691,1992-09-30,Shawnee Mission,KS,38.992255,-94.67528
1692,1992-02-04,Colton,CA,34.061931,-117.31995
1693,1991-11-05,Redlands,CA,34.063264,-117.16888
1694,1991-10-01,Marion,NC,35.709124,-82.01719
1695,1992-03-03,Devils Lake,ND,48.122688,-98.87752
1696,1991-04-02,Fergus Falls,MN,46.282084,-96.06798
1697,1991-11-05,Elk Grove,CA,38.406432,-121.43673
1698,1991-07-02,Hooksett,NH,43.058785,-71.44412
1699,1991-10-01,Layton,UT,41.07221,-111.97625
1700,1992-08-04,Poway,CA,32.973645,-117.03701
1701,1991-10-01,Elberton,GA,34.119972,-82.825
1702,1992-03-03,Melbourne,FL,28.13926,-80.65077
1703,1991-07-02,Martinsburg,WV,39.463781,-77.95767
1704,1992-02-04,Vacaville,CA,38.34401,-121.95333
1705,1991-11-05,Waterloo,NY,42.911377,-76.87027
1707,1991-06-04,East Liverpool,OH,40.641545,-80.57469
1708,1991-06-04,Ogden,UT,41.165551,-111.9675
1709,1991-11-05,Angola,IN,41.656798,-85.0223
1710,1991-07-02,Clinton,MS,32.347295,-90.33224
1711,1991-07-02,Birmingham,AL,33.546051,-86.66963
1712,1992-02-04,Largo,FL,27.916149,-82.80122
1713,1991-11-05,Canton,IL,40.552853,-90.02794
1714,1991-12-31,Fairmont,WV,39.470949,-80.13936
1715,1991-11-05,Easton,MD,38.777863,-76.0782
1716,1991-11-05,Prince Frederick,MD,38.535116,-76.58432
1717,1992-04-01,Waldorf,MD,38.634306,-76.86008
1718,1991-07-02,Findlay,OH,41.037325,-83.64576
1719,1991-12-31,Big Rapids,MI,43.697651,-85.47815
1720,1991-12-31,Snellville,GA,33.860955,-84.01807
1721,1991-11-05,Iowa City,IA,41.650916,-91.56058
1722,1991-11-05,Marshall,MN,44.446885,-95.77281
1723,1991-12-31,Des Moines,IA,41.537059,-93.58072
1724,1991-11-05,Millersburg,OH,40.542339,-81.87856
1725,1991-12-31,Dayton,OH,39.802606,-84.30196
1726,1991-11-05,Harrisonburg,VA,38.426786,-78.88153
1727,1991-11-05,Berlin,WI,43.978561,-88.95413
1728,1991-07-31,Anderson,IN,40.061092,-85.67672
1729,1991-09-11,Connersville,IN,39.644794,-85.14929
1730,1991-11-05,Tappahannock,VA,37.916172,-76.90656
1731,1991-12-31,Geneva,NY,42.853039,-76.99394
1732,1991-11-05,Denison,IA,42.019336,-95.35379
1733,1992-02-04,Owosso,MI,42.99605,-84.17896
1734,1991-12-31,Champaign,IL,40.108631,-88.2733
1735,1992-02-04,Wheeling,IL,42.131526,-87.92958
1736,1991-12-31,Dover,DE,39.16426,-75.51163
1737,1992-08-04,Villa Park,IL,41.880429,-87.97813
1738,1992-02-04,Hutchinson,MN,44.896255,-94.38604
1739,1992-08-04,Washington,PA,40.170663,-80.25185
1740,1992-02-04,Freeport,IL,42.300918,-89.63208
1741,1991-11-05,Milford,DE,38.922806,-75.41449
1742,1991-09-11,Blackwood,NJ,39.784614,-75.05678
1743,1991-12-31,Harlan,KY,36.828285,-83.31856
1744,1991-11-05,Webster,NY,43.220991,-77.45364
1745,1992-02-04,Richmond,IN,39.831061,-84.89067
1746,1992-02-04,Tempe,AZ,33.365951,-111.93155
1747,1992-02-04,Perris,CA,33.822068,-117.21514
1748,1991-11-05,Charleston,SC,32.821238,-80.05353
1749,1992-02-04,Somersworth,NH,43.253783,-70.87549
1750,1991-10-01,Marion,OH,40.589747,-83.12173
1751,1991-11-05,Raleigh,NC,35.847788,-78.70161
1752,1992-02-04,Bay City,MI,43.607523,-83.9162
1753,1992-02-04,Derry,NH,42.886486,-71.30019
1754,1991-11-05,Howell,MI,42.612243,-83.91835
1755,1992-02-04,Rohnert Park,CA,38.347174,-122.69537
1756,1992-06-02,Fontana,CA,34.088911,-117.45213
1757,1992-03-03,Duluth,MN,46.821489,-92.18242
1758,1992-09-30,New Castle,IN,39.92698,-85.3697
1759,1992-02-04,Gloucester,VA,37.414991,-76.52959
1760,1992-04-01,Folsom,CA,38.672127,-121.15783
1761,1992-02-04,Granite City,IL,38.720938,-90.11431
1762,1992-02-04,Seabrook,NH,42.88439,-70.85466
1763,1992-06-02,Bluefield,VA,37.222548,-81.3367
1764,1992-02-04,Des Moines,IA,41.601189,-93.68076
1765,1992-04-01,Somerset,PA,40.02847,-79.1105
1766,1992-04-01,Marietta,GA,33.99605,-84.47464
1767,1992-05-05,Shallotte,NC,33.933388,-78.412864
1768,1992-03-03,Orem,UT,40.278086,-111.71067
1769,1993-02-02,Du Bois,PA,41.125563,-78.74648
1770,1992-05-05,Cranberry Twp,PA,40.700423,-80.11374
1771,1992-05-05,Sturgis,MI,41.822244,-85.43234
1772,1992-03-03,Klamath Falls,OR,42.169323,-121.70298
1773,1992-04-01,Newport News,VA,37.115698,-76.5183
1774,1991-12-31,Sanford,NC,35.458804,-79.16415
1775,1992-03-03,Lebanon,OR,44.527304,-122.85512
1776,1992-06-30,Watertown,WI,43.170606,-88.73058
1777,1992-06-02,Reading,PA,40.327741,-75.87002
1778,1992-04-01,Cody,WY,44.566114,-109.20826
1779,1992-05-05,Bridgeview,IL,41.742432,-87.80678
1780,1992-11-02,Charlottesville,VA,38.072402,-78.50149
1781,1992-06-02,Cortland,NY,42.591109,-76.19217
1782,1992-08-04,Vienna,WV,39.323907,-81.54206
1783,1992-06-02,Princeton,IN,38.34841,-87.57478
1784,1992-05-05,Salem,OR,44.995029,-122.95801
1785,1993-04-30,Hudson,NH,42.759821,-71.42079
1786,1992-08-04,Saint Paul,MN,44.804048,-93.13378
1787,1992-06-02,Carroll,IA,42.066399,-94.86786
1788,1992-08-04,Scarborough,ME,43.583224,-70.35268
1789,1992-09-01,Lodi,CA,38.132618,-121.32282
1790,1992-09-30,Monroe,MI,41.940898,-83.38515
1791,1992-06-30,Fremont,MI,43.464943,-85.95005
1792,1992-09-01,Saint Marys,PA,41.4376,-78.54272
1793,1992-09-30,Woodburn,OR,45.144415,-122.84521
1794,1992-08-04,Bloomsburg,PA,41.013364,-76.43982
1795,1992-08-04,Pisgah Forest,NC,35.272331,-82.67373
1796,1992-06-30,Amherst,NH,42.854886,-71.6082
1797,1992-11-02,Rockland,ME,44.108735,-69.11366
1798,1992-06-30,Caro,MI,43.490117,-83.3881
1799,1992-08-04,Portage,WI,43.549851,-89.47101
1800,1987-12-26,Garland,TX,32.881525,-96.64601
1801,1988-08-15,Arlington,TX,32.659277,-97.16435
1802,1988-01-01,Topeka,KS,39.04045,-95.71698
1804,1992-09-01,Fort Wayne,IN,41.054247,-85.23878
1805,1992-11-02,La Quinta,CA,33.675373,-116.29649
1806,1992-08-04,Johnstown,NY,43.014523,-74.38473
1807,1992-08-04,West Berlin,NJ,39.807695,-74.93392
1808,1992-09-30,Steamboat Springs,CO,40.348242,-106.92691
1809,1992-09-30,Jonesville,MI,42.018585,-84.64548
1810,1993-08-31,Fishkill,NY,41.537232,-73.8972
1811,1992-06-30,Norfolk,VA,36.855247,-76.21233
1812,1992-08-04,Wooster,OH,40.800086,-81.95726
1813,1992-08-04,Newark,NY,43.052126,-77.09424
1814,1992-08-04,Elgin,IL,42.034776,-88.32393
1815,1992-11-02,Fresno,CA,36.831723,-119.83198
1816,1992-06-30,Knightdale,NC,35.790516,-78.48345
1817,1992-06-30,Hermiston,OR,45.846442,-119.28423
1818,1992-03-03,Aurora,IL,41.766029,-88.35254
1819,1992-08-04,Menomonie,WI,44.86877,-91.92915
1820,1992-08-04,Kittanning,PA,40.809467,-79.49922
1821,1992-08-04,Charlotte,NC,35.192919,-80.66822
1823,1992-08-04,Hanover,PA,39.795301,-76.97727
1824,1992-08-04,Ypsilanti,MI,42.223482,-83.63316
1825,1992-04-01,Manassas,VA,38.790202,-77.51294
1826,1992-08-04,Visalia,CA,36.358928,-119.24027
1827,1992-08-04,Park City,UT,40.726899,-111.53674
1828,1992-08-04,Plover,WI,44.452277,-89.54399
1829,1992-06-30,Marion,SC,34.164094,-79.396
1830,1993-01-05,Auburn,NY,42.922273,-76.55882
1831,1992-09-30,Clay,NY,43.1835,-76.18002
1832,1992-11-02,Palm Springs,CA,33.842984,-116.54344
1833,1992-08-04,Fredericksburg,VA,38.301829,-77.47077
1834,1992-08-04,Grants Pass,OR,42.4631,-123.33162
1835,1992-09-30,Vestal,NY,42.075874,-76.02837
1836,1993-02-02,Adrian,MI,41.900927,-84.04585
1837,1992-11-25,Humble,TX,30.005691,-95.28488
1838,1992-08-04,Las Vegas,NV,36.205718,-115.22363
1839,1992-09-01,Elyria,OH,41.369846,-82.10874
1840,1992-08-04,Manteca,CA,37.782332,-121.23578
1841,1992-09-30,Chesapeake,VA,36.761698,-76.24511
1842,1992-11-02,Greensboro,NC,36.025379,-79.87112
1843,1992-11-02,Mcminnville,OR,45.210104,-123.20747
1844,1993-03-02,Toms River,NJ,40.010092,-74.23032
1845,1992-11-25,Fort Lauderdale,FL,26.05479,-80.31581
1846,1992-09-01,Douglas,AZ,31.382775,-109.55035
1847,1992-09-30,Ocala,FL,29.198704,-82.10556
1848,1993-09-28,Glen Ellyn,IL,41.869779,-88.06285
1849,1992-09-01,Winston Salem,NC,36.147887,-80.23423
1850,1992-11-02,Chambersburg,PA,39.931123,-77.66139
1851,1993-02-02,Pompano Beach,FL,26.21606,-80.21776
1852,1993-02-02,Woodbridge,VA,38.678451,-77.30657
1853,1992-11-02,Hemet,CA,33.736743,-117.0217
1855,1993-02-02,Eden Prairie,MN,44.867013,-93.42557
1856,1993-01-05,Bangor,ME,44.81777,-68.78952
1857,1992-11-02,Mentor,OH,41.688162,-81.33378
1858,1992-11-02,Montevideo,MN,44.985313,-95.7066
1859,1993-01-05,Calexico,CA,32.683491,-115.48277
1860,1993-01-05,Elkton,MD,39.626736,-75.84294
1861,1992-11-02,Stillwater,MN,45.054551,-92.82581
1862,1993-02-02,Rialto,CA,34.109511,-117.37617
1863,1993-02-02,Eastlake,OH,41.653796,-81.44614
1864,1992-11-02,Minneapolis,MN,45.112742,-93.3789
1865,1992-11-02,Redwood Falls,MN,44.540923,-95.12732
1866,1993-03-02,Farmington,ME,44.66776,-70.12362
1867,1992-11-02,Westminster,MD,39.563901,-76.98926
1868,1993-02-02,Auburn,ME,44.089173,-70.24143
1869,1993-02-02,Marlton,NJ,39.88488,-74.90416
1870,1993-01-05,Moscow,ID,46.727636,-116.98067
1871,1992-11-02,Watertown,NY,43.976735,-75.91199
1872,1993-01-05,Helena,MT,46.588803,-112.04193
1873,1993-08-31,Cranston,RI,41.76435,-71.50972
1874,1993-02-02,Englewood,FL,26.925265,-82.29693
1875,1992-08-04,Glen Burnie,MD,39.164158,-76.6306
1876,1992-11-02,Hood River,OR,45.673147,-121.5368
1877,1992-11-02,Porterville,CA,36.055121,-119.01595
1878,1992-11-02,Rexburg,ID,43.80991,-111.80942
1879,1992-11-25,Barstow,CA,34.894181,-117.03636
1880,1993-01-05,Coos Bay,OR,43.357357,-124.21086
1881,1993-01-05,Antelope,CA,38.716874,-121.3698
1882,1992-11-02,Selma,CA,36.566779,-119.62201
1883,1992-08-04,Monaca,PA,40.677132,-80.28881
1884,1997-01-10,Dickson City,PA,41.46213,-75.62478
1885,1992-09-30,Butler,PA,40.877664,-79.9113
1886,1992-11-02,Mechanicsburg,PA,40.249543,-77.002296
1887,1993-01-05,Montoursville,PA,41.271098,-76.90382
1888,1992-09-30,Logan,UT,41.780998,-111.80904
1889,1992-09-30,La Grande,OR,45.32627,-118.08197
1890,1993-04-30,Salisbury,MD,38.369675,-75.61214
1891,1993-01-05,Manchester,CT,41.778888,-72.52384
1892,1992-11-02,La Grange,IL,41.788536,-87.87605
1893,1993-09-28,Bowie,MD,38.93193,-76.72457
1894,1992-11-25,Medina,OH,41.139849,-81.85646
1895,1993-01-05,Akron,OH,41.144661,-81.61948
1896,1993-03-31,Colorado Springs,CO,38.952366,-104.76701
1897,1993-02-02,Elk Grove Village,IL,42.005978,-87.99847
1898,1993-03-02,Saint Charles,IL,41.919808,-88.30498
1899,1993-03-02,Riverside,CA,33.978965,-117.33646
1900,1992-11-02,Burley,ID,42.496588,-113.79857
1901,1992-11-02,Butte,MT,45.996957,-112.51279
1902,1993-01-05,Idaho Falls,ID,43.458004,-111.95925
1903,1993-01-05,Yuba City,CA,39.109272,-121.68033
1904,1993-06-01,Leesburg,VA,39.138978,-77.54519
1905,1992-11-02,Blackfoot,ID,43.211238,-112.39454
1906,1992-09-01,Fairhaven,MA,41.634152,-70.8814
1907,1993-02-02,Hinsdale,NH,42.797633,-72.49518
1908,1992-11-02,Green Bay,WI,44.485243,-87.92232
1909,1993-02-02,Niagara Falls,NY,43.091106,-78.96249
1910,1993-01-05,Crescent City,CA,41.782681,-124.16703
1911,1993-03-02,Akron,OH,41.034156,-81.43944
1912,1993-03-31,Corona,CA,33.8808,-117.54068
1913,1993-03-02,Bowling Green,OH,41.388519,-83.65795
1914,1993-02-02,Highland,CA,34.12716,-117.20073
1915,1993-02-02,Yucca Valley,CA,34.161795,-116.41246
1916,1993-11-02,Boca Raton,FL,26.348354,-80.21841
1917,1993-04-30,Santee,CA,32.84681,-116.98983
1918,1993-02-02,Bellingham,MA,42.075122,-71.47953
1919,1993-02-02,Lincoln,ME,45.368934,-68.48354
1920,1993-02-02,Salem,OR,44.858446,-123.05368
1921,1993-06-30,Manahawkin,NJ,39.707575,-74.25933
1922,1993-03-31,Rancho Cucamonga,CA,34.127819,-117.5246
1923,1993-06-30,Comstock Park,MI,43.059661,-85.67384
1924,1993-02-02,Presque Isle,ME,46.679321,-68.00216
1925,1993-01-05,Newport,OR,44.649252,-124.05039
1926,1993-02-02,Oswego,NY,43.449201,-76.47992
1927,1993-09-21,Macedonia,OH,41.321189,-81.50135
1928,1993-03-31,Flint,MI,43.005477,-83.76098
1929,1993-02-02,Cloquet,MN,46.727077,-92.48612
1930,1993-02-02,Plaistow,NH,42.837189,-71.09445
1931,1992-11-02,Rhinelander,WI,45.64672,-89.39408
1932,1993-08-31,Ellsworth,ME,44.614885,-68.43626
1933,1993-07-27,Melrose Park,IL,41.91823,-87.89627
1934,1993-02-02,South Hill,VA,36.733874,-78.17287
1935,1993-03-02,Johnstown,PA,40.289442,-78.86612
1936,1992-11-02,Sault Sainte Marie,MI,46.460895,-84.32485
1937,1992-11-25,Coshocton,OH,40.270198,-81.86761
1938,1993-03-02,Chicago,IL,41.787982,-87.7738
1939,1993-04-30,Brunswick,ME,43.8992,-69.95894
1940,1993-03-02,East Greenbush,NY,42.593047,-73.67343
1941,1994-05-17,Glendora,CA,34.119245,-117.8548
1942,1993-03-02,Holland,MI,42.823232,-86.12726
1943,1993-04-30,Lincoln,NE,40.855645,-96.71298
1945,1993-03-31,Mansfield,PA,41.811139,-77.06939
1946,1993-03-31,Massena,NY,44.937212,-74.87693
1947,1993-04-30,Omak,WA,48.403174,-119.39066
1948,1993-10-26,Weirton,WV,40.412067,-80.57542
1949,1993-03-31,Fredonia,NY,42.425683,-79.3371
1950,1993-02-02,Ahoskie,NC,36.293352,-76.98612
1951,1993-03-31,Ontario,OR,44.057074,-116.99148
1952,1993-04-30,Minneapolis,MN,45.095674,-93.25336
1953,1993-03-31,Louisburg,NC,36.062239,-78.24953
1954,1993-04-30,Sanford,ME,43.426792,-70.75245
1955,1993-04-30,Rockford,IL,42.306666,-89.00839
1956,1993-04-30,Billings,MT,45.778852,-108.5742
1957,1993-06-01,Naples,FL,26.28828,-81.78726
1958,1993-04-30,Rio Grande City,TX,26.445982,-98.69332
1959,1993-03-02,Middletown,NY,41.449364,-74.43951
1960,1993-06-30,Tampa,FL,27.963798,-82.49537
1961,1993-06-01,Alexandria,KY,38.946893,-84.38652
1962,1993-08-31,Kokomo,IN,40.501576,-86.14677
1963,1993-06-01,Turlock,CA,37.48858,-120.85196
1964,1993-06-01,Westerly,RI,41.354881,-71.80387
1965,1993-10-26,Council Bluffs,IA,41.2544,-95.79062
1966,1993-02-02,Geneseo,NY,42.798159,-77.77733
1967,1993-06-01,Springfield,MA,42.128442,-72.50932
1968,1993-08-31,Aberdeen,MD,39.508177,-76.18066
1969,1994-01-25,Midlothian,VA,37.51338,-77.64165
1970,1993-07-27,Hudson,MA,42.389813,-71.55791
1971,1993-03-02,Rochester,MN,44.048931,-92.49459
1972,1993-10-26,Livermore,CA,37.65778,-121.73011
1973,1993-06-01,Lakewood,NY,42.098657,-79.32439
1974,1993-08-31,Houlton,ME,46.12672,-67.87798
1975,1993-08-31,Claremont,NH,43.374562,-72.34152
1976,1993-07-27,Elmira,NY,42.129274,-76.84497
1977,1993-08-31,Brick,NJ,40.042479,-74.123
1978,1993-10-26,Plymouth,IN,41.347159,-86.32023
1979,1994-01-04,Clearlake,CA,38.956206,-122.63523
1980,1995-09-19,Putnam,CT,41.913816,-71.88434
1981,1993-10-26,California,MD,38.303103,-76.52231
1982,1993-04-30,Appleton,WI,44.322836,-88.40492
1983,1993-08-31,Ceres,CA,37.584282,-120.95064
1984,1993-09-28,North Adams,MA,42.696064,-73.10145
1985,1994-09-27,Laurel,MD,39.101646,-76.80334
1986,1993-09-28,Norwalk,OH,41.236357,-82.60185
1987,1993-10-26,Lapeer,MI,43.048777,-83.33073
1988,1993-07-27,Roseville,CA,38.752434,-121.28933
1989,1993-10-26,Lompoc,CA,34.639682,-120.4471
1990,1993-08-31,Delaware,OH,40.295925,-83.06968
1991,1994-01-25,Bloomington,IN,39.121719,-86.57409
1992,1993-07-27,Upland,CA,34.101659,-117.65776
1993,1993-03-31,Brockport,NY,43.214261,-77.93937
1994,1994-01-04,Plattsburgh,NY,44.693271,-73.46617
1995,1993-08-31,Pocatello,ID,42.96866,-112.43182
1996,1994-01-04,Hallandale,FL,25.987069,-80.15004
1997,1993-08-31,Latham,NY,42.74964,-73.76802
2000,1993-06-01,Kitty Hawk,NC,36.115899,-75.72772
2001,1993-08-31,Fresno,CA,36.753177,-119.69703
2002,1993-10-26,Gilroy,CA,37.016943,-121.56581
2003,1993-10-26,North Brunswick,NJ,40.453131,-74.48287
2004,1994-01-04,Dubuque,IA,42.460604,-90.68576
2005,1993-10-26,Kannapolis,NC,35.492989,-80.60293
2006,1993-07-27,Lewiston,ID,46.388753,-116.98484
2007,1993-07-27,Moses Lake,WA,47.133606,-119.28455
2008,1993-08-31,Grove City,PA,41.169987,-80.08174
2009,1993-08-31,Abingdon,MD,39.473899,-76.2983
2010,1993-07-27,Niles,MI,41.828055,-86.23981
2012,1993-08-31,North Oxford,MA,42.170846,-71.88989
2013,1993-09-28,Waterville,ME,44.554965,-69.61297
2014,1993-09-28,Houghton Lake,MI,44.305812,-84.75589
2015,1993-08-31,Fairfax,VA,38.874879,-77.38642
2016,1993-08-31,Colville,WA,48.658512,-117.7671
2019,1993-06-01,Uniontown,PA,39.89822,-79.7311
2020,1993-10-19,Rensselaer,IN,40.962747,-87.13684
2021,1993-09-28,Raynham,MA,41.934586,-71.04905
2022,1994-01-04,North Windham,CT,41.758713,-72.13964
2023,1994-01-04,Lebanon,PA,40.358015,-76.42501
2024,1994-01-04,Tunkhannock,PA,41.535917,-75.95006
2025,1993-09-28,Banta,CA,37.889849,-121.253872
2027,1993-10-26,Cumberland,MD,39.646587,-78.77398
2028,1994-01-04,Riverside,CA,33.91355,-117.46052
2029,1993-09-28,Medford,OR,42.334496,-122.83547
2030,1993-10-26,Sonora,CA,37.995238,-120.3437
2031,1993-10-26,Union City,CA,37.592184,-122.04577
2032,1993-10-26,Oxnard,CA,34.21707,-119.1769
2035,1993-10-26,Greenville,OH,40.094141,-84.63574
2036,1993-08-31,Charleston,WV,38.329768,-81.73418
2037,1994-05-17,Aberdeen,WA,46.972965,-123.81923
2038,1994-01-25,Sterling,VA,39.004276,-77.43442
2039,1993-10-26,Merced,CA,37.342056,-120.50154
2040,1994-01-04,Burlington,NJ,40.06834,-74.84463
2041,1993-10-26,Pennsville,NJ,39.645377,-75.51923
2043,1994-01-25,Warsaw,NY,42.739447,-78.15948
2044,1994-03-30,Chico,CA,39.720955,-121.81888
2045,1995-01-03,Nottingham,MD,39.389457,-76.48709
2046,1993-10-26,Augusta,ME,44.344406,-69.76345
2047,1994-01-04,Palmyra,ME,44.845899,-69.36775
2048,1993-10-19,Fairfield,CA,38.245844,-122.101917
2049,1993-09-28,Altoona,PA,40.50217,-78.39121
2050,1994-01-25,Henderson,NV,36.030927,-114.96787
2051,1994-01-04,Kingman,AZ,35.25925,-113.95225
2052,1994-01-04,Ukiah,CA,39.154946,-123.20088
2053,1993-10-26,Willows,CA,39.499754,-122.20773
2054,1994-01-04,Jackson,CA,38.359772,-120.75324
2055,1993-11-02,Concord,NH,43.213705,-71.53774
2056,1994-01-04,Saratoga Springs,NY,43.080399,-73.77038
2057,1994-01-25,Rindge,NH,42.749835,-72.01034
2058,1993-09-28,Raleigh,NC,35.844753,-78.63263
2059,1993-10-26,Greensburg,PA,40.298765,-79.54126
2060,1993-09-28,Lexington,KY,38.005199,-84.40954
2061,1993-10-19,Plainwell,MI,42.462935,-85.61256
2062,1994-01-04,Benton Harbor,MI,42.10809,-86.41801
2063,1994-01-04,Youngstown,OH,41.099008,-80.74545
2064,1994-01-04,Milford,PA,41.320904,-74.88565
2065,1994-01-25,Knoxville,TN,35.928997,-84.07543
2066,1994-07-26,Houston,TX,29.734379,-95.52269
2068,1993-11-02,Fairless Hills,PA,40.175504,-74.84611
2069,1993-11-02,Talent,OR,42.227162,-122.78933
2073,1994-03-22,Cleveland,OH,41.378051,-81.77945
2075,1994-10-26,Bend,OR,44.020483,-121.30891
2077,1994-09-27,Lake Elsinore,CA,33.675893,-117.34946
2078,1994-03-30,Marietta,OH,39.426551,-81.44373
2079,1994-03-30,Marquette,MI,46.554402,-87.42223
2080,1994-03-30,Battle Creek,MI,42.311089,-85.13845
2081,1994-03-30,Clearwater,FL,27.971362,-82.74482
2082,1994-07-26,Cerritos,CA,33.868314,-118.06754
2083,1994-01-04,Morgantown,WV,39.628475,-79.98796
2084,1994-01-25,Bozeman,MT,45.707153,-110.9878
2086,1994-04-26,Plano,TX,33.03505,-96.80492
2087,1994-07-26,Saint Paul,MN,45.076708000000004,-93.0828
2088,1995-07-25,Batavia,NY,42.996507,-78.19279
2089,1995-03-15,Bristol,VA,36.645419,-82.18137
2090,1999-10-13,Franklin,NJ,41.11736,-74.58784
2091,1994-06-29,Miami,FL,25.777977,-80.29718
2092,1995-01-03,Ogdensburg,NY,44.683636,-75.49024
2093,1995-03-21,Utica,NY,43.114519,-75.22284
2094,1994-05-17,Vista,CA,33.179587,-117.24461
2095,1994-06-29,East Wareham,MA,41.782915,-70.64881
2096,1996-02-20,Warminster,PA,40.211241,-75.0887
2097,1994-03-30,Hudson,NY,42.22948,-73.75846
2098,1994-10-26,Columbus,OH,40.002514,-82.92589
2099,1994-09-27,Paso Robles,CA,35.640589,-120.70418
2100,1994-08-31,Cheboygan,MI,45.589694,-84.4625
2101,1994-03-30,Kennewick,WA,46.169982,-119.10456
2102,1994-03-22,Ludington,MI,43.967306,-86.43044
2103,1994-04-26,Walpole,MA,42.145237,-71.25375
2104,1994-08-31,Newburgh,NY,41.521593,-74.04072
2105,1994-01-04,Dallas,TX,32.922624,-96.83616
2106,1994-07-26,Reno,NV,39.54641,-119.79664
2107,1995-10-17,Lockport,NY,43.160857,-78.68756
2108,1994-10-22,Mays Landing,NJ,39.478771,-74.7581
2109,1995-01-03,Millville,NJ,39.379382,-75.03923
2110,1994-05-17,Paramount,CA,33.899915,-118.16231
2111,1994-07-26,Birmingham,AL,33.409582,-86.69684
2112,1994-10-18,Scottsdale,AZ,33.494152,-111.92079
2113,1995-01-03,Phoenix,AZ,33.50689,-112.10262
2114,1994-08-30,Chipley,FL,30.636228,-85.5775
2115,1994-08-31,New Philadelphia,OH,40.477187,-81.44439
2116,1995-09-19,Queensbury,NY,43.330471,-73.67816
2117,1994-10-26,Los Banos,CA,37.048385,-120.86983
2118,1994-10-22,Lunenburg,MA,42.582839,-71.72051
2119,1994-09-27,Milpitas,CA,37.436451,-121.89438
2120,1994-10-26,Norwich,NY,42.541733,-75.52612
2121,1994-10-18,Shelton,WA,47.224044,-123.10538
2122,1994-07-26,Avon,MA,42.121932,-71.04522
2123,1995-01-25,Texarkana,TX,33.414708,-94.08984
2124,1994-03-22,Dayton,OH,39.765259,-84.10262
2125,1994-01-25,Denver,CO,39.745526,-105.06251
2127,1994-07-26,Wausau,WI,44.958382,-89.6693
2128,1998-05-20,Halifax,MA,41.999851,-70.85395
2129,1995-01-25,Clearfield,PA,41.026239,-78.43838
2130,1994-08-31,Portsmouth,NH,43.070188,-70.776840000000007
2131,1995-01-03,Topeka,KS,39.0161,-95.6979
2132,1994-09-27,Baton Rouge,LA,30.403341,-91.08035
2133,1994-04-26,Austin,TX,30.250761,-97.84469
2134,1995-01-03,Charlotte,NC,35.321279,-80.7405
2135,1995-08-16,Cobleskill,NY,42.696926,-74.52436
2136,1995-01-25,Culpeper,VA,38.459521,-77.99875
2137,1995-10-17,Durham,NC,35.963994,-78.93602
2138,1999-01-27,West Lebanon,NH,43.649781,-72.30594
2139,1995-05-31,Lynn,MA,42.464879,-70.97411
2140,1999-10-27,North Conway,NH,44.035684,-71.13084
