station_id,name,lat,lon,altitude,date,precipitation,mean_temp,max_temp,min_temp
11,Donaueschingen (Landeplatz),47.9736,8.5205,680,2026-03-10,,,,
44,Großenkneten,52.9336,8.237,44,2026-03-10,1.4,9.6,18.6,1.8
73,Aldersbach-Kramersepp,48.6183,13.062,374,2026-03-10,0,8.5,16.4,2.6
78,Alfhausen,52.4853,7.9125,64,2026-03-10,0.3,10.4,17.5,3.7
90,Alsfeld,50.7557,9.2583,305,2026-03-10,,,,
91,Alsfeld-Eifa,50.7446,9.345,304,2026-03-10,0.1,8.8,17.9,1
96,Neuruppin-Alt Ruppin,52.9437,12.8518,50,2026-03-10,0.1,6.9,16.5,-0.9
102,Leuchtturm Alte Weser,53.8633,8.1275,0,2026-03-10,,5.6,12.3,1.1
125,Altenstadt,47.8342,10.8667,739,2026-03-10,0.7,7.6,,
131,Geringswalde-Altgeringswalde,51.0881,12.9326,296,2026-03-10,0,10.2,16,6.5
142,Altomünster-Maisbrunn,48.406,11.3117,511,2026-03-10,0.3,9.5,16.5,3.1
150,Alzey,49.7273,8.1164,215,2026-03-10,0,11.5,18.7,5.3
151,Amberg-Unterammersricht,49.4691,11.8546,382,2026-03-10,0.4,7.7,17.6,0.3
154,Amerang-Pfaffing,48.0197,12.2925,516,2026-03-10,0,7.7,16.9,0.1
161,Andernach,50.4237,7.4202,75,2026-03-10,0.1,10.2,18.8,2.6
164,Angermünde,53.0316,13.9908,54,2026-03-10,0,8.2,16.8,-0.1
167,Anklam,53.8409,13.6854,11,2026-03-10,0.4,7.3,15.3,-1.1
183,Arkona,54.6791,13.4344,42,2026-03-10,0.2,7.6,11.4,4.2
191,Arnstein-Müdesheim,49.9694,9.9114,217,2026-03-10,2.1,7.9,18.1,-0.9
197,"Arolsen-Volkhardinghausen, Bad",51.3219,9.0558,365,2026-03-10,,,,
198,Artern,51.3744,11.292,164,2026-03-10,0,10,18.4,1.6
217,Attenkam,47.8774,11.3643,670,2026-03-10,0,10,16,4.4
222,Aue,50.5908,12.7139,393,2026-03-10,0,8.8,16.4,2.5
232,Augsburg,48.4253,10.9417,462,2026-03-10,0.4,8.7,16.4,1.4
257,Baden-Baden-Geroldsau,48.727,8.2457,240,2026-03-10,4.5,10.2,16.2,3.6
259,Müllheim,47.8064,7.6387,275,2026-03-10,1.2,11.1,16.9,3.6
282,Bamberg,49.8743,10.9206,240,2026-03-10,0.1,6.8,17,-1.7
294,Barsinghausen-Hohenbostel,52.3199,9.43,110,2026-03-10,4.8,11.9,19.4,6.9
298,Barth,54.3405,12.7108,3,2026-03-10,2.2,6.2,14.5,-3.3
303,Baruth,52.0613,13.4997,55,2026-03-10,0,7.8,17.3,0.2
314,"Kubschütz, Kr. Bautzen",51.1604,14.5042,234,2026-03-10,0,11.4,15.9,8.2
320,Heinersreuth-Vollhof,49.9666,11.5198,350,2026-03-10,0,6.4,16.6,-1.4
330,Oberzent-Beerfelden,49.5617,8.9673,455,2026-03-10,1.4,11.1,16.8,5.5
342,Belm,52.317,8.1694,103,2026-03-10,0.9,10.2,17.5,2.9
368,Bergen,52.8152,9.9248,69,2026-03-10,2.9,8.9,,
377,"Bergzabern, Bad",49.107,7.9967,210,2026-03-10,0.8,11.8,18,5.2
379,"Berka, Bad (Flugplatz)",50.9075,11.2665,304,2026-03-10,0.5,8,18.1,-0.1
390,"Berleburg, Bad-Stünzel",50.9837,8.3683,611,2026-03-10,0.6,9.7,15.5,4.8
400,Berlin-Buch,52.631,13.5021,60,2026-03-10,0,8.9,16.7,2.9
403,Berlin-Dahlem (FU),52.4537,13.3017,51,2026-03-10,0,8.9,16.5,2.8
420,Berlin-Marzahn,52.5447,13.5598,61,2026-03-10,0.3,10,17.2,4.1
427,Berlin Brandenburg,52.3807,13.5306,46,2026-03-10,0,9.1,16.5,1.9
433,Berlin-Tempelhof,52.4676,13.402,48,2026-03-10,0.1,9.8,16.7,3.5
445,Bernburg/Saale (Nord),51.8218,11.711,85,2026-03-10,0,10.1,18.1,2.9
460,Berus,49.2641,6.6868,362,2026-03-10,0.5,10.1,15.3,6.3
535,Blankenrath,50.0372,7.3079,417,2026-03-10,0.4,9.9,14.8,5
555,Bochum,51.5026,7.2289,110,2026-03-10,0.4,12,18.3,8.1
591,Boizenburg,53.3911,10.6878,45,2026-03-10,3,9.5,18,1.1
596,Boltenhagen,54.0027,11.1908,15,2026-03-10,3.3,8.3,15.2,2.4
603,Königswinter-Heiderhof,50.7293,7.204,147,2026-03-10,0,11.5,17,6.4
617,Borken in Westfalen,51.873,6.8863,47,2026-03-10,0.9,10.1,17,3.3
619,Borkum-Süderstraße,53.5788,6.6703,12,2026-03-10,,,,
642,Brake,53.3518,8.4969,4,2026-03-10,,,,
656,Braunlage,51.7234,10.6021,607,2026-03-10,3.8,9.4,15.3,5
662,Braunschweig,52.2915,10.4464,81,2026-03-10,0.1,10.5,18,3.3
691,Bremen,53.0451,8.7981,4,2026-03-10,2.2,9.7,18,1.6
701,Bremerhaven,53.5332,8.5761,7,2026-03-10,0.6,9.5,16.1,2.8
704,Bremervörde,53.4451,9.139,11,2026-03-10,3.5,9.1,17.7,1.5
722,Brocken,51.7986,10.6183,1135,2026-03-10,4.6,6.7,12.1,3.5
755,"Buchen, Kr. Neckar-Odenwald",49.5182,9.3213,340,2026-03-10,1.2,9.4,18.2,-0.1
757,Buchenbach,47.9625,7.9983,445,2026-03-10,0,9.7,15.1,4.2
760,Rosengarten-Klecken,53.3629,9.9435,83,2026-03-10,0.8,9.9,17.7,1.8
766,Büchel-Alflen,50.1745,7.0595,477,2026-03-10,1.3,9.9,,
769,Bückeburg,52.2817,9.089,68,2026-03-10,1.3,11.1,,
788,Büsum,54.1193,8.8584,3,2026-03-10,,,,
817,Burgwald-Bottendorf,51.0306,8.8146,296,2026-03-10,15.5,6.8,18.1,-0.9
840,Carlsfeld,50.4313,12.6114,895,2026-03-10,0,5.5,12,0.9
850,Celle,52.5959,10.0296,39,2026-03-10,4.5,9,,
853,Chemnitz,50.7913,12.872,416,2026-03-10,0,10.7,15.4,6.8
856,Chieming,47.8843,12.5404,551,2026-03-10,0,9.3,16.6,3.1
860,Algermissen-Groß Lobke,52.2731,10.0163,80,2026-03-10,2.1,9.8,18.7,2.3
867,Lautertal-Oberlauter,50.3066,10.9679,344,2026-03-10,0.9,8.1,16.5,0.8
880,Cottbus,51.7759,14.3168,69,2026-03-10,0,8.6,17.5,2.7
891,Cuxhaven,53.8712,8.7058,5,2026-03-10,7.9,7.8,16.8,2
896,Dachwig,51.0778,10.8619,170,2026-03-10,0,9.9,18.7,0.7
953,Deuselbach,49.7619,7.0542,481,2026-03-10,0,10,14.1,6.7
954,UFS Deutsche Bucht,54.1796,7.4587,0,2026-03-10,,3.9,6.5,1.6
963,Diepholz,52.5881,8.3424,38,2026-03-10,,9.7,,3
983,Dillingen/Donau-Fristingen,48.5562,10.56,419,2026-03-10,3.8,8.9,16.5,1.4
991,Dippoldiswalde-Reinberg,50.9116,13.7087,359,2026-03-10,0,8.4,15.6,2.5
1001,Doberlug-Kirchhain,51.6451,13.5747,97,2026-03-10,0,8,16.5,1.6
1011,Dörrmoschel-Felsbergerhof,49.6017,7.7413,442,2026-03-10,,,,
1013,Dogern,47.6026,8.1697,309,2026-03-10,,,,
1048,Dresden-Klotzsche,51.1278,13.7543,228,2026-03-10,0,10.9,15.8,6
1050,Dresden-Hosterwitz,51.0221,13.847,112,2026-03-10,0,11.1,17,4.5
1052,Möckern-Drewitz,52.2174,12.1641,80,2026-03-10,0.1,9.3,17,2.3
1072,"Dürkheim, Bad",49.4719,8.1929,107,2026-03-10,0,11,18,3.5
1078,Düsseldorf,51.296,6.7686,37,2026-03-10,1.2,11.1,16.5,4.9
1103,Ebersberg-Halbing,48.1003,11.9872,592,2026-03-10,0.1,10.4,16.5,4.4
1107,Ebrach,49.852,10.4991,346,2026-03-10,0,7.9,17.2,-0.3
1161,Eichstätt-Landershofen,48.8778,11.2349,385,2026-03-10,0.7,7.3,16.3,0.5
1197,Ellwangen-Rindelbach,48.9895,10.1312,463,2026-03-10,0.2,9.2,17.5,1.5
1200,Elpersbüttel,54.0691,9.0105,3,2026-03-10,5,7.4,15.8,0.7
1207,"Elster, Bad-Sohl",50.2705,12.2742,558,2026-03-10,0,7.3,15.5,2.3
1214,Elzach-Fisnacht,48.2012,8.1088,431,2026-03-10,0.1,9.4,17.1,2
1224,Emmendingen-Mundingen,48.1378,7.8351,201,2026-03-10,0,11,18.3,2.5
1246,Ennigerloh-Ostenfelde,51.8418,8.0607,104,2026-03-10,1,10.5,17.5,3.8
1255,Eppingen-Elsenz,49.1661,8.8483,226,2026-03-10,3.7,10.6,17.5,3.7
1262,München-Flughafen,48.3477,11.8134,446,2026-03-10,0.2,8.3,17.1,1.5
1266,Erfde,54.2992,9.3162,18,2026-03-10,4.4,7.3,16.1,1
1270,Erfurt-Weimar,50.9827,10.9613,317,2026-03-10,0.6,10,17.1,2.9
1279,Möhrendorf-Kleinseebach,49.6497,11.0075,268,2026-03-10,0.1,8.1,18,0.7
1297,Eschwege,51.2041,10.0138,156,2026-03-10,0.8,7.7,18.7,-0.7
1300,Eslohe,51.254,8.1565,351,2026-03-10,1.7,7.3,16.6,-0.5
1303,Essen-Bredeney,51.4041,6.9677,150,2026-03-10,3.7,11.8,16.3,8.9
1327,Weilerswist-Lommersum,50.7119,6.7905,147,2026-03-10,0.3,10.7,16.6,3.5
1332,"Falkenberg,Kr.Rottal-Inn",48.4832,12.7241,471,2026-03-10,0,9.2,16.2,3.1
1339,Faßberg,52.9157,10.1885,74,2026-03-10,1.9,7.8,,
1346,Feldberg/Schwarzwald,47.8748,8.0038,1486,2026-03-10,0,4.4,8.1,2
1357,Fichtelberg/Oberfranken-Hüttstadl,49.9807,11.8376,655,2026-03-10,0.4,6.3,13.9,1
1358,Fichtelberg,50.4283,12.9536,1213,2026-03-10,0,5.7,10.7,2.7
1379,Flensburg (Schäferhaus),54.7737,9.3753,41,2026-03-10,,,,
1411,Birx/Rhön,50.5309,10.0479,747,2026-03-10,1.6,9.3,14.3,5.2
1420,Frankfurt/Main,50.0259,8.5213,100,2026-03-10,0.9,10.8,19,3.6
1424,Frankfurt/Main-Westend,50.1269,8.6694,121,2026-03-10,0.1,12.1,18.7,5.9
1443,Freiburg,48.0232,7.8343,237,2026-03-10,0.2,11.3,17.1,3.7
1451,Freiburg/Elbe,53.8277,9.2493,2,2026-03-10,11,8.4,18,1.3
1468,Freudenstadt,48.4538,8.409,797,2026-03-10,4.7,7.8,13.8,3.6
1490,Friedrichshafen,47.6454,9.4795,394,2026-03-10,,,,
1503,Friesoythe-Altenoythe,53.0643,7.902,6,2026-03-10,3.6,9.6,18.1,2.7
1504,Fritzlar/Eder,51.119,9.2799,172,2026-03-10,0,8.1,,
1526,Fulda-Horas,50.5668,9.6532,245,2026-03-10,0,8.7,18.6,-1.4
1544,Gardelegen,52.5129,11.3942,47,2026-03-10,0,8.7,17.9,-0.2
1550,Garmisch-Partenkirchen,47.483,11.0621,719,2026-03-10,0,7.8,17.7,0
1572,Geilenkirchen-Neutevern,50.9593,6.0392,80,2026-03-10,0.3,11.4,,
1580,Geisenheim,49.9859,7.9548,111,2026-03-10,0,11.2,18.7,5.4
1587,Gelbelsee,48.9481,11.4289,536,2026-03-10,1.7,9.6,15.7,4.9
1590,Geldern-Walbeck,51.4942,6.2463,37,2026-03-10,2.3,10.6,16.7,6.5
1602,Ohlsbach,48.433,7.993,177,2026-03-10,11.4,11.1,18.4,5.2
1605,Genthin,52.3875,12.1602,35,2026-03-10,1.5,7.8,17.3,-1.2
1612,Gera-Leumnitz,50.8812,12.1289,311,2026-03-10,0,9.9,16.6,4.4
1639,Gießen/Wettenberg,50.6017,8.6439,203,2026-03-10,,,,
1645,Gilserberg-Moischeid,50.9656,9.05,327,2026-03-10,0.8,8.1,17.5,-0.5
1666,Glücksburg-Meierwik,54.8273,9.5058,12,2026-03-10,2,4.4,,
1684,Görlitz,51.1621,14.9506,239,2026-03-10,0,10.9,15.8,8
1691,Göttingen,51.5002,9.9507,167,2026-03-10,0.3,8.9,18.5,0.2
1694,Goldberg,53.6058,12.1034,59,2026-03-10,0,8.5,16.6,0.7
1721,Gräfenberg-Kasberg,49.664,11.2239,506,2026-03-10,0.1,9.3,15.1,4.2
1735,Grainet-Rehberg,48.7894,13.629,628,2026-03-10,0,7.5,14,1
1736,Grambek,53.5731,10.6797,26,2026-03-10,2.2,8.7,17.7,-0.9
1757,Greifswald,54.0967,13.4056,2,2026-03-10,0,7.8,15,-0.4
1759,Greifswalder Oie,54.2437,13.9104,11,2026-03-10,1.2,6.9,12,3.1
1766,Münster/Osnabrück,52.1344,7.6969,48,2026-03-10,1.7,9.8,17.6,2.5
1792,Groß Berßen,52.7553,7.4815,27,2026-03-10,2.3,9.6,17.4,2.6
1803,Sanitz-Groß Lüsewitz,54.0714,12.3238,35,2026-03-10,4.2,7.5,15.8,-1.2
1832,Großer Arber,49.1129,13.1338,1436,2026-03-10,0.2,4.2,6.3,2.2
1863,Gründau-Breitenborn,50.2667,9.1854,258,2026-03-10,0,11.3,18.4,5.3
1869,Grünow,53.3154,13.9339,56,2026-03-10,0,8.5,15.7,1.4
1886,Günzburg,48.4878,10.2608,444,2026-03-10,3.3,8.9,17,0.1
1963,Hallig Hooge,54.5742,8.5133,4,2026-03-10,,,,
1964,Olsdorf,49.9445,6.3821,328,2026-03-10,1.3,8.2,14.5,3.5
1975,Hamburg-Fuhlsbüttel,53.6332,9.9881,11,2026-03-10,0.6,9.6,18.3,0.6
1981,Hamburg-Neuwiedenthal,53.4776,9.8957,4,2026-03-10,0.1,10.4,19,1.7
1993,Hameln,52.0848,9.3896,68,2026-03-10,,,,
2014,Hannover,52.4644,9.6779,55,2026-03-10,8.8,10.2,18.7,2.2
2023,Harburg,48.7918,10.7062,501,2026-03-10,2.5,9.8,16,2.3
2039,"Harzburg, Bad",51.9002,10.5699,203,2026-03-10,1.5,12.6,18.9,7.6
2044,Harzgerode,51.652,11.1366,404,2026-03-10,0.2,8.3,15.2,1.4
2074,Hechingen,48.3752,8.98,518,2026-03-10,2.3,8.8,16.8,1.6
2115,Helgoland,54.175,7.892,4,2026-03-10,0.1,4,7.7,1.9
2171,"Hersfeld, Bad",50.852,9.7377,272,2026-03-10,0.2,9,18.1,-0.1
2174,Herzberg,51.6255,10.3695,236,2026-03-10,4.8,9.1,17.6,2
2201,Hiddensee-Vitte,54.575,13.1044,1,2026-03-10,0.1,5.3,10.3,1.2
2211,Hilgenroth,50.737,7.6525,295,2026-03-10,1.8,10.4,17.2,3.5
2252,Bertsdorf-Hörnitz,50.8992,14.7456,271,2026-03-10,0,9.7,15.3,3.3
2261,Hof,50.3123,11.876,565,2026-03-10,0,7.6,14.7,1.1
2290,Hohenpeißenberg,47.8009,11.0108,977,2026-03-10,0.5,9.9,14.5,6.9
2303,Hohn,54.3162,9.5385,10,2026-03-10,4.5,6.6,,
2306,Hohwacht,54.3194,10.6732,8,2026-03-10,5.9,5.9,12.1,2.4
2315,Holzdorf-Bernsdorf,51.7657,13.1666,78,2026-03-10,0,7.9,,
2319,Holzkirchen,47.8823,11.6961,685,2026-03-10,0,9.1,16.6,2.9
2323,"Bevern, Kr. Holzminden",51.8529,9.4953,110,2026-03-10,4.2,7.9,18.9,0.5
2349,Hornisgrinde,48.6136,8.2033,1138,2026-03-10,,,,
2362,Hümmerich,50.5651,7.4843,331,2026-03-10,0.5,11,15.7,6.7
2377,Kandern-Gupf,47.7001,7.5895,362,2026-03-10,,,,
2385,Idar-Oberstein,49.6927,7.3263,376,2026-03-10,1.4,8.5,,
2410,Ingolstadt-Manching,48.7111,11.5363,364,2026-03-10,0.4,8.6,,
2429,Itzehoe,53.9897,9.5697,20,2026-03-10,10.3,8,17.6,0.7
2437,Schleswig-Jagel,54.457,9.5203,21,2026-03-10,5,6.2,,
2444,Jena (Sternwarte),50.9251,11.583,155,2026-03-10,0,9.7,19.1,2.3
2480,Kahl/Main,50.0643,8.993,108,2026-03-10,0,11.1,19.5,3.2
2483,Kahler Asten,51.1803,8.4891,839,2026-03-10,1.1,8.8,13.5,5.5
2485,Kaisersbach-Cronhütte,48.917,9.6871,489,2026-03-10,0.9,8.5,16.8,1.3
2486,Kaiserslautern,49.4262,7.7557,271,2026-03-10,0,10,17.1,3.3
2497,Kall-Sistig,50.5014,6.5264,505,2026-03-10,1.2,9.2,13.7,4.5
2559,Kempten,47.7233,10.3348,705,2026-03-10,2.2,8.9,16.6,0.4
2564,Kiel-Holtenau,54.3776,10.1424,28,2026-03-10,4.5,7.5,14.1,2.8
2573,Waging am See-Schnöbling,47.9588,12.7717,470,2026-03-10,,,,
2575,Kirchberg/Jagst-Herboldshausen,49.1804,9.98,432,2026-03-10,0,9.6,17.2,2.6
2578,Kirchdorf/Poel,53.9995,11.4341,14,2026-03-10,2.1,9.7,17.1,2.9
2597,"Kissingen, Bad",50.224,10.0792,282,2026-03-10,3.3,8.6,16.5,0.8
2600,Kitzingen,49.7363,10.1781,193,2026-03-10,0.4,9.4,19.7,-0.4
2601,Kleiner Feldberg/Taunus,50.2218,8.4469,822,2026-03-10,0.8,9.4,14.3,4.9
2618,Kleiner Inselsberg,50.8458,10.4803,732,2026-03-10,1.7,8.2,14.5,3.8
2627,Schipkau-Klettwitz,51.5554,13.8845,128,2026-03-10,0,8,16.5,1.1
2629,Kleve,51.7612,6.0954,46,2026-03-10,4.6,9.5,15.7,4.5
2638,Klippeneck,48.1054,8.7548,974,2026-03-10,0,9,15.1,5.1
2641,Klitzschen bei Torgau,51.5185,12.9065,90,2026-03-10,0,9,16.8,3.2
2667,Köln/Bonn,50.8645,7.1575,91,2026-03-10,1.9,10.6,17.4,3
2680,"Königshofen, Bad",50.284,10.4456,289,2026-03-10,0.8,7.2,16.6,-2.4
2700,Kösching,48.8302,11.4872,416,2026-03-10,0.3,9.2,16.9,3.2
2704,Köthen (Anhalt),51.7511,12.0094,76,2026-03-10,0,9.6,18,1.9
2708,"Kohlgrub, Bad (Rosshof)",47.6652,11.0805,742,2026-03-10,0.1,8.8,16.9,2.4
2712,Konstanz,47.6952,9.1307,428,2026-03-10,0.2,9.4,16.9,1.8
2750,Kronach,50.2524,11.3209,310,2026-03-10,0.2,6.4,16.8,-1.3
2773,Kümmersbruck,49.4283,11.9016,416,2026-03-10,0.1,8.1,,
2794,Kyritz,52.9362,12.4093,40,2026-03-10,1.1,7.2,16.9,-1
2796,Laage-Kronskamp,53.9156,12.279,40,2026-03-10,0.6,8.2,,
2812,Lahr,48.3647,7.828,156,2026-03-10,7.1,10.8,17.2,3.5
2856,Langenlipsdorf,51.9173,13.0878,92,2026-03-10,0,8.2,16.8,2.2
2878,"Lauchstädt, Bad",51.3909,11.8786,117,2026-03-10,0.8,9.5,17.4,2.6
2886,Laupheim,48.2175,9.9097,539,2026-03-10,2.3,9.2,,
2897,Lautertal-Hörgenau,50.5808,9.2857,522,2026-03-10,,,,
2905,Lechfeld,48.1849,10.8507,550,2026-03-10,0.3,8.9,,
2907,Leck,54.7903,8.9514,7,2026-03-10,0.2,5.5,10.5,1.8
2925,Leinefelde,51.3932,10.3123,356,2026-03-10,1,9.4,17.1,2.9
2928,Leipzig-Holzhausen,51.3151,12.4462,138,2026-03-10,0,10.3,17.1,5.5
2932,Leipzig/Halle,51.4347,12.2396,131,2026-03-10,0,10.1,17,4.9
2947,Lennestadt-Theten,51.1333,8.0348,286,2026-03-10,4.2,7.8,16.5,-0.1
2951,Lenzen/Elbe,53.1007,11.4864,20,2026-03-10,0.4,8.4,17.8,-0.9
2953,Lenzkirch-Ruhbühl,47.8597,8.2308,854,2026-03-10,2.7,6.5,13.7,0.1
2961,Leuchtturm Kiel,54.4996,10.2737,0,2026-03-10,,5.7,10.6,1.8
2985,Lichtenhain-Mittelndorf,50.9383,14.2094,321,2026-03-10,0,10.4,15.7,6.6
3015,Lindenberg,52.2085,14.118,98,2026-03-10,0,10,16.2,4.9
3028,"Lippspringe, Bad",51.7854,8.8388,157,2026-03-10,7.3,9.5,18.5,1.2
3031,Lippstadt-Bökenförde,51.6336,8.3945,92,2026-03-10,2.6,10.5,19.8,2.7
3032,List auf Sylt,55.011,8.4125,25,2026-03-10,0.1,4.3,,
3034,"Lobenstein, Bad",50.4505,11.635,496,2026-03-10,0,6.1,15.6,-0.3
3042,Löhnberg-Obershausen,50.5617,8.2386,230,2026-03-10,6.4,8.5,17.8,1.9
3083,Lübben-Blumenfelde,51.9267,13.8797,57,2026-03-10,0,8,,1.7
3086,Lübeck-Blankensee,53.8025,10.6989,15,2026-03-10,1.3,8.8,17.8,0
3093,Lüchow,52.9724,11.1374,16,2026-03-10,1,8.7,18.1,-0.8
3098,Lüdenscheid,51.2452,7.6425,387,2026-03-10,2.7,9.7,16.2,4
3126,Magdeburg,52.1029,11.5827,79,2026-03-10,1.7,10.2,18.2,2.6
3137,Mainz-Lerchenberg (ZDF),49.9658,8.2049,199,2026-03-10,0,11.5,18.2,6.4
3147,Mallersdorf-Pfaffenberg-Oberlindhart,48.7548,12.2118,390,2026-03-10,0,8,17.1,1.9
3155,Manderscheid-Sonnenhof,50.1015,6.8009,415,2026-03-10,1,7.9,14.3,1.5
3158,Manschnow,52.5468,14.5453,12,2026-03-10,0,8.2,16.8,2.5
3164,"Cölbe, Kr. Marburg-Biedenkopf",50.8492,8.7745,187,2026-03-10,1.7,8.7,18.4,0.5
3166,Marienberg,50.6511,13.1469,639,2026-03-10,0,9,13.8,5
3167,"Marienberg, Bad",50.6621,7.9603,547,2026-03-10,0,10.9,15.4,6.3
3181,Markt Erlbach-Hagenhofen,49.4875,10.6277,360,2026-03-10,0.1,8.2,17.3,-0.1
3196,Marnitz,53.3221,11.9324,81,2026-03-10,0,9.2,16.5,0.9
3204,Martinroda,50.7335,10.8815,429,2026-03-10,2.3,10.9,17.3,4.7
3226,Aschersleben-Mehringen,51.7259,11.511,108,2026-03-10,0,8.8,17.7,0.3
3231,Meiningen,50.5611,10.3771,450,2026-03-10,2.1,8.4,14.7,1.6
3234,Klipphausen-Garsebach,51.1294,13.4328,158,2026-03-10,0,9.8,16.3,3.7
3244,Memmingen,47.9821,10.1384,614,2026-03-10,0.1,8.5,16.1,-0.3
3254,Meppen,52.7155,7.3176,19,2026-03-10,4.4,8.1,,
3257,"Mergentheim, Bad",49.4797,9.7832,278,2026-03-10,0.7,9.9,17.8,1.5
3268,Meßstetten-Appental,48.1694,8.9433,900,2026-03-10,0.1,7.4,14.8,-0.4
3271,Metten,48.8548,12.9189,314,2026-03-10,0,7.9,16.1,2.8
3278,Metzingen,48.5377,9.2734,354,2026-03-10,3,9.9,18.5,2.5
3284,Michelstadt,49.6692,9.0085,240,2026-03-10,0.5,10.4,19.8,1.9
3287,Michelstadt-Vielbrunn,49.7177,9.0997,453,2026-03-10,0.3,12.1,17,6.6
3289,Schmieritz-Weltwitz,50.7281,11.7838,356,2026-03-10,0,10.3,17.2,4.2
3307,Mittenwald-Buckelwiesen,47.4814,11.2649,983,2026-03-10,0,7.9,14.2,3.2
3319,Röllbach,49.7644,9.253,239,2026-03-10,0.2,10.1,19.3,1.5
3321,Mönchengladbach-Hilderath,51.1313,6.3608,76,2026-03-10,0.2,10.8,16.1,6.3
3348,Moringen-Lutterbeck,51.7209,9.8351,241,2026-03-10,1.4,8.2,17.6,1
3362,Mühlacker,48.9721,8.8735,243,2026-03-10,3.9,9.5,18.5,0.9
3366,Mühldorf,48.279,12.5024,406,2026-03-10,0,7.2,16.8,-0.1
3376,Müncheberg,52.5176,14.1232,64,2026-03-10,0,7.9,16.6,0.5
3379,München-Stadt,48.1632,11.5429,515,2026-03-10,0,11.1,17.7,6
3402,Münsingen-Apfelstetten,48.3851,9.4837,755,2026-03-10,0.7,8.3,15.7,1.6
3426,"Muskau, Bad",51.566,14.7008,127,2026-03-10,0,9.7,17.8,1.2
3442,"Nauheim, Bad",50.3574,8.7506,149,2026-03-10,0.1,10.4,19.5,2.9
3484,Neuburg an der Donau,48.7085,11.2147,379,2026-03-10,1,8.7,,
3485,Neuburg/Kammel-Langenhaslach,48.3114,10.3773,487,2026-03-10,1.8,8.9,17.3,1
3490,"Neuenahr, Bad-Ahrweiler",50.5346,7.0853,111,2026-03-10,0.5,11.5,18.8,4.4
3509,Stechlin-Menz,53.102,13.0421,78,2026-03-10,0,6.8,16.2,-0.6
3513,Neuhaus am Rennweg,50.5003,11.1345,845,2026-03-10,0,8.4,12.5,5.7
3527,Neukirchen-Hauptschwenda,50.8923,9.405,500,2026-03-10,0,9.9,16.2,3.6
3534,Neumarkt-Höhenberg,49.2713,11.4881,584,2026-03-10,,,,
3540,Neunkirchen-Seelscheid-Krawinkel,50.8446,7.372,195,2026-03-10,1.2,10.7,16.7,4.7
3545,Neunkirchen-Wellesweiler,49.344,7.2297,236,2026-03-10,0.4,8.8,16.9,0.9
3571,Neustadt am Kulm-Filchendorf,49.8174,11.8638,452,2026-03-10,1.1,7,15.8,0
3591,Nideggen-Schmidt,50.6743,6.424,350,2026-03-10,0.9,10.2,16,6.3
3603,Niederstetten,49.3895,9.9666,459,2026-03-10,1.9,10.4,,
3621,Reimlingen,48.8253,10.5067,435,2026-03-10,3.1,9,16.8,1.8
3623,Nörvenich-Niederbolheim,50.8294,6.6601,108,2026-03-10,0.8,10.5,,
3631,Norderney,53.7123,7.1519,12,2026-03-10,0.2,6.5,12.8,2.3
3639,Nordholz-Wanhöden,53.7647,8.6584,24,2026-03-10,4.5,7.5,,
3651,Northeim-Stöckheim,51.7521,9.945,111,2026-03-10,,,,
3660,Nürburg-Barweiler,50.3602,6.8697,485,2026-03-10,2.1,9.1,14.6,4.2
3667,Nürnberg-Netzstall,49.4258,11.2539,369,2026-03-10,4.4,7.3,16.8,-0.2
3668,Nürnberg,49.503,11.0549,314,2026-03-10,0.4,9.5,17.4,1.7
3679,Kiefersfelden-Gach,47.6187,12.1665,518,2026-03-10,0,8.8,17.6,2
3730,Oberstdorf,47.3984,10.2759,806,2026-03-10,0.6,7,17.3,-1.7
3734,Obersulm-Willsbach,49.128,9.3525,232,2026-03-10,2.4,10.7,18.4,2.9
3739,Oberviechtach,49.4521,12.4365,596,2026-03-10,0,8.9,14.9,4.1
3761,Öhringen,49.207,9.5176,276,2026-03-10,3.3,10.7,18.1,4.5
3811,Oschatz,51.296,13.0928,151,2026-03-10,0,10.6,16.9,5
3821,Osterfeld,51.0872,11.9293,244,2026-03-10,0,10.9,17.2,5.4
3836,Ostheim v.d. Rhön,50.4538,10.2211,314,2026-03-10,1.4,6.5,16.5,-2.1
3857,Oy-Mittelberg-Petersthal,47.6362,10.3892,886,2026-03-10,5.5,8,15.8,1.2
3875,Parsberg/Oberpfalz-Eglwang,49.151,11.6897,549,2026-03-10,1.2,8.8,16.2,3.1
3897,Pelzerhaken,54.0893,10.8773,2,2026-03-10,2.8,6.3,14.7,-1.3
3904,Perl-Nennig,49.5354,6.3789,152,2026-03-10,0,7.7,15.3,0.7
3905,Perl-Sinz-Renglischberg,49.5214,6.4476,407,2026-03-10,,,,
3925,Pforzheim-Ispringen,48.9329,8.6973,332,2026-03-10,5.2,10.1,17,3.4
3927,Pfullendorf,47.9345,9.2869,630,2026-03-10,0.8,7.6,16.2,-0.1
3939,Pirmasens,49.1912,7.5879,382,2026-03-10,0,10.5,14.9,5.8
3946,Plauen,50.4818,12.13,387,2026-03-10,0,8.4,16.8,1.1
3975,Pommelsbrunn-Mittelburg,49.4777,11.5357,522,2026-03-10,1.8,9.1,15.6,4.5
3987,Potsdam,52.3812,13.0622,81,2026-03-10,0.1,10.1,16.8,4
4024,Putbus,54.3643,13.4771,40,2026-03-10,0,8.2,14,2.2
4032,Quedlinburg,51.7953,11.132,142,2026-03-10,0.2,10.2,18.3,2.1
4036,Querfurt-Mühle Lodersleben,51.3895,11.5412,206,2026-03-10,0.2,9.3,17,2.4
4039,Quickborn,53.7331,9.8776,11,2026-03-10,0.9,8.3,18.2,-0.5
4063,Rahden-Kleinendorf,52.4461,8.5906,41,2026-03-10,0.4,10.2,18.3,1.6
4094,"Weingarten, Kr. Ravensburg",47.8062,9.6206,441,2026-03-10,3.4,9.2,18.5,0.8
4104,Regensburg,49.0425,12.1019,365,2026-03-10,0.7,8.8,16.8,3
4127,Reichshof-Eckenhagen,50.9906,7.6958,347,2026-03-10,2.5,10.7,16.4,5.4
4160,Renningen-Ihinger Hof,48.7425,8.924,478,2026-03-10,3.6,8.9,16.5,1.7
4169,Rheinau-Memprechtshofen,48.6703,7.9939,131,2026-03-10,3.5,10.1,17.3,2.5
4175,Rheinfelden,47.559,7.7721,283,2026-03-10,1.6,9.6,16.2,2.7
4177,Rheinstetten,48.9726,8.3301,116,2026-03-10,3.6,10.7,18.3,3.2
4189,"Altheim, Kreis Biberach",48.1479,9.4596,534,2026-03-10,1.7,7.9,16.8,-0.6
4271,Rostock-Warnemünde,54.1803,12.0808,5,2026-03-10,2.7,8.7,13.8,4.1
4275,Rotenburg (Wümme),53.1289,9.3398,32,2026-03-10,1.6,9.6,18.2,1.2
4279,Roth bei Prüm,50.3046,6.3863,593,2026-03-10,,,,
4280,Roth,49.2162,11.1035,386,2026-03-10,3.3,8.7,17.5,1.1
4287,Rothenburg ob der Tauber,49.3849,10.1732,415,2026-03-10,0.3,10.1,17.5,3
4300,Rottweil,48.1815,8.6356,589,2026-03-10,0.2,7.9,17.2,0.5
4301,"Kreuznach, Bad",49.8502,7.871,102,2026-03-10,0,11.4,19,4.7
4323,Ruppertsecken,49.6468,7.8837,461,2026-03-10,0,11.7,15.5,7.7
4336,Saarbrücken-Ensheim,49.2128,7.1077,319,2026-03-10,0.6,9.5,15.3,4.6
4349,Sachsenheim,48.9569,9.0711,251,2026-03-10,1.8,10.4,18.4,3.6
4354,Saldenburg-Entschenreuth,48.7832,13.3146,457,2026-03-10,0,8,15.3,2.4
4371,"Salzuflen, Bad",52.1042,8.7521,135,2026-03-10,0.7,10.5,19,3.4
4377,Sandberg,50.3518,10.0034,518,2026-03-10,0.2,10.5,16.4,5.8
4393,Sankt Peter-Ording,54.3279,8.6031,5,2026-03-10,2.7,5.6,11.2,1.8
4411,Schaafheim-Schlierbach,49.9195,8.9672,155,2026-03-10,0.2,10.8,19.5,2
4445,Wernigerode-Schierke,51.7659,10.6533,614,2026-03-10,3.2,7.3,16,-0.2
4464,Schleiz,50.5679,11.8041,501,2026-03-10,0.8,10,16,5.6
4466,Schleswig,54.5275,9.5487,43,2026-03-10,3.7,7,14.5,1.2
4480,Schlüchtern-Herolz,50.3447,9.5533,232,2026-03-10,0,8.8,18.1,-0.3
4501,Schmücke,50.6545,10.7696,938,2026-03-10,2.8,7.5,12.4,4.6
4508,Schneifelforsthaus,50.2968,6.4194,653,2026-03-10,2,8.2,12.7,5.7
4548,Schönwald/Ofr.-Brunn,50.1847,12.0791,608,2026-03-10,0,6.7,14.1,1.3
4559,Schorndorf-Knöbling,49.1644,12.6175,398,2026-03-10,0,6.7,16.4,0.3
4592,Schwandorf,49.3278,12.0871,356,2026-03-10,0.2,8,17.6,1.4
4605,Schwarzburg,50.6441,11.1936,277,2026-03-10,0,8.2,18,0.5
4625,Schwerin,53.6424,11.3871,59,2026-03-10,3.2,9.5,17.1,1.6
4642,Seehausen,52.8911,11.7297,22,2026-03-10,0.1,8.6,17.5,-1
4651,Seesen,51.904,10.1885,189,2026-03-10,0.1,9.8,17.8,1.9
4703,Sigmaringen-Laiz,48.0719,9.1943,581,2026-03-10,0.8,7.7,17.2,-0.3
4704,Sigmarszell-Zeisertsweiler,47.5776,9.7404,508,2026-03-10,9.8,8.7,15.6,0.5
4706,Simbach/Inn,48.2718,13.0273,358,2026-03-10,0,7.2,17.8,-0.7
4709,Simmern-Wahlbach,49.9996,7.5981,445,2026-03-10,0,10.1,15.8,5.4
4745,Soltau,52.9604,9.793,75,2026-03-10,3.2,8.9,17.8,-0.3
4748,Sondershausen,51.3691,10.88,185,2026-03-10,0.1,8.4,18.3,0.3
4763,Sontra,51.0607,9.9266,265,2026-03-10,0.3,7,17.2,-1.6
4813,"Staffelstein, Bad-Stublang",50.0806,11.0467,318,2026-03-10,0,7.3,,
4841,"Steinau, Kr. Cuxhaven",53.6946,8.8735,-0,2026-03-10,6.1,7.7,18,-0.2
4857,Mittelnkirchen-Hohenfelde,53.5534,9.6097,2,2026-03-10,1.4,9,18.6,-0.4
4878,Oberharz am Brocken-Stiege,51.6647,10.881,505,2026-03-10,1.3,7.7,15.5,-0.1
4880,Stimpfach-Weipertshofen,49.0878,10.124,450,2026-03-10,,,,
4887,Stötten,48.6656,9.8648,734,2026-03-10,0,10.2,14.4,6.4
4911,Straubing,48.8275,12.5597,351,2026-03-10,0,8,16.2,1.8
4919,Strucklahnungshörn,54.4965,8.8069,7,2026-03-10,,,,
4928,Stuttgart (Schnarrenberg),48.8281,9.2,314,2026-03-10,4.8,10.8,17.6,5.5
4931,Stuttgart-Echterdingen,48.6883,9.2235,371,2026-03-10,2.5,9.6,17.7,2.1
4947,Süpplingen,52.2317,10.92,129,2026-03-10,,,,
4978,Tann/Rhön,50.639,10.0228,395,2026-03-10,0.1,9.5,17.3,2.1
4997,Starkenberg-Tegkwitz,50.9771,12.3419,196,2026-03-10,0,10,17.6,4.6
5009,Teterow,53.761,12.5574,37,2026-03-10,0.6,8.7,16.4,0.7
5014,Worpswede-Hüttenbusch,53.2758,8.9857,7,2026-03-10,3.1,9.1,18.6,0.5
5017,Teuschnitz,50.4002,11.3888,633,2026-03-10,0.2,8.3,14.1,3.2
5029,Tholey,49.4737,7.0385,387,2026-03-10,0.7,9.8,14.1,6.7
5046,Tirschenreuth-Lodermühl,49.8576,12.3542,501,2026-03-10,0.6,6.5,15.3,0.1
5064,Tönisvorst,51.2897,6.4437,37,2026-03-10,0.3,10.8,17,5.9
5078,Travemünde,53.9619,10.8892,2,2026-03-10,,,,
5097,Tribsees,54.0654,12.7655,10,2026-03-10,0.2,6.8,15,-2
5099,Trier-Zewen,49.7326,6.6131,132,2026-03-10,0,9.2,16.4,2.8
5100,Trier-Petrisberg,49.7479,6.6583,261,2026-03-10,0,9.4,15.7,4.9
5109,Trollenhagen,53.5998,13.3039,68,2026-03-10,0.1,9.2,15.4,1.8
5111,Trostberg,48.0311,12.5396,560,2026-03-10,0.1,9.4,16.9,2.6
5133,Twistetal-Mühlhausen,51.3344,8.9132,287,2026-03-10,0.7,8.6,17.5,0.9
5142,Ueckermünde,53.7445,14.0698,1,2026-03-10,0,5.8,14.6,-1.2
5146,Uelzen,52.9414,10.5289,50,2026-03-10,0.9,8.9,18.6,-0.5
5149,Gollhofen,49.5679,10.1969,318,2026-03-10,0.1,10.4,17.7,2.8
5158,Ummendorf,52.1601,11.1759,159,2026-03-10,2.4,11.1,17,5
5229,Villingen-Schwenningen,48.0453,8.4608,719,2026-03-10,0.1,7.2,16.2,-0.6
5275,Waghäusel-Kirrlach,49.2445,8.5374,105,2026-03-10,2.5,11.8,19.4,4.7
5279,Wesertal-Lippoldsberg,51.6194,9.5749,167,2026-03-10,1.9,7.4,18.2,0.2
5280,Wittenborn,53.9224,10.2267,33,2026-03-10,4.6,8.7,18,0.7
5300,Waldems-Reinborn,50.2596,8.3607,380,2026-03-10,0,12,17.6,7
5319,"Waldsee, Bad-Reute",47.9167,9.7076,576,2026-03-10,,,,
5327,Walldürn,49.5789,9.3974,404,2026-03-10,,,,
5335,Waltershausen,50.8963,10.5483,352,2026-03-10,2.2,9.4,18.1,2.2
5347,Warburg,51.5039,9.1118,236,2026-03-10,1,8.5,17.5,0.7
5349,Waren (Müritz),53.5196,12.6654,73,2026-03-10,0,6.3,15.6,0
5371,Wasserkuppe,50.4973,9.9427,920,2026-03-10,0,8.4,14.6,4.8
5397,Weiden,49.6662,12.1844,440,2026-03-10,0,8.5,16.2,1.7
5404,Weihenstephan-Dürnast,48.4024,11.6946,477,2026-03-10,0.9,8.9,16.6,2.1
5412,Weilheim-Bierbronnen,47.6802,8.1964,771,2026-03-10,,,,
5424,Weimar-Schöndorf,51.0177,11.3544,328,2026-03-10,1.2,11.4,16.8,5.5
5426,Weinbiet,49.3758,8.1212,553,2026-03-10,0,11,16.5,7.6
5433,Weiskirchen/Saar,49.5534,6.812,383,2026-03-10,0.8,9.3,14.7,5.3
5440,Weißenburg-Emetzheim,49.0115,10.9308,439,2026-03-10,2.5,9.5,16.8,2.7
5480,Werl,51.5763,7.8879,85,2026-03-10,1,10.8,18.1,3.4
5490,Wernigerode,51.8454,10.7686,233,2026-03-10,2.1,9.7,18,1.5
5516,Fehmarn,54.5283,11.0606,3,2026-03-10,4.3,5.3,9.7,2.3
5538,Wielenbach (Demollstr.),47.8827,11.1576,551,2026-03-10,0,7.9,17.9,0.6
5541,Wiesbaden-Auringen,50.1321,8.3169,263,2026-03-10,0.1,10.8,18.1,5.7
5546,Wiesenburg,52.1206,12.4586,187,2026-03-10,0,10.3,15.8,5.2
5562,Neubulach-Oberhaugstett,48.6516,8.6801,571,2026-03-10,2.5,8,15.9,2
5629,Wittenberg,51.8891,12.6446,105,2026-03-10,0.6,9.3,16.6,3
5640,Wittmundhafen,53.5444,7.6625,7,2026-03-10,1.4,7.8,,
5643,Wittstock-Rote Mühle,53.1864,12.4949,68,2026-03-10,0,6.9,16.7,-1.3
5664,Wolfach,48.2953,8.2391,296,2026-03-10,0.9,8.5,18.3,2
5688,Dachsberg-Wolpadingen,47.7004,8.1057,881,2026-03-10,0.2,8.7,13.5,4.4
5692,Worms,49.6051,8.3659,88,2026-03-10,0,10.9,18.4,3.8
5705,Würzburg,49.7704,9.9576,268,2026-03-10,0.6,10.3,18.7,1.9
5715,Wunstorf,52.4626,9.4245,49,2026-03-10,2.1,10.6,,
5717,Wuppertal-Buchenhofen,51.2256,7.1052,134,2026-03-10,0.2,10.1,16.5,4.2
5731,Wutöschingen-Ofteringen,47.6783,8.3801,395,2026-03-10,0.6,8.6,17,-0.2
5745,Zehdenick,52.9664,13.3268,51,2026-03-10,0,7.2,16.3,-0.7
5750,Zeitz,51.0314,12.1495,264,2026-03-10,0,11.4,16.8,7.4
5779,Zinnwald-Georgenfeld,50.7313,13.7516,877,2026-03-10,0,6.4,12.2,1
5792,Zugspitze,47.421,10.9848,2956,2026-03-10,,-6,-2.5,-8.2
5797,Lichtentanne,50.6879,12.4329,349,2026-03-10,0,11.4,16.6,6.5
5800,Zwiesel,49.028,13.2385,615,2026-03-10,0.2,6.1,14.5,-0.3
5822,Bassum,52.863,8.6989,42,2026-03-10,1.7,10,18.3,2
5825,Berge,52.6198,12.7867,41,2026-03-10,0.1,8.8,16,1.5
5839,Emden,53.3881,7.2287,-0,2026-03-10,8.9,7.9,15.3,0.5
5851,Frankenberg-Geismar,51.0806,8.8769,392,2026-03-10,,,,
5856,Fürstenzell,48.5451,13.3532,476,2026-03-10,0,8.9,15.7,3.5
5871,Hahn,49.9463,7.2645,497,2026-03-10,0.1,10.7,14.6,6.2
5877,Putlos,54.316,10.8002,5,2026-03-10,,,,
5906,Mannheim,49.5063,8.5584,98,2026-03-10,0.3,12,19.2,5
5930,Schönhagen (Ostseebad),54.641,10.0238,1,2026-03-10,5.1,3.8,8.4,1.9
6091,Spiekeroog (SWN),53.7674,7.6721,14,2026-03-10,,,,
6093,Wendisch Evern,53.2139,10.4704,62,2026-03-10,2.2,9.7,18.9,1.5
6096,Altmühlsee,49.1423,10.7301,416,2026-03-10,,,,
6097,Darßer Ort (SWN),54.4738,12.5014,4,2026-03-10,,,,
6099,Gailingen,47.702,8.7318,449,2026-03-10,,,,
6101,Bastorf-Kägsdorf (SWN),54.1323,11.6719,51,2026-03-10,,,,
6102,Lindau (SWN),47.5396,9.6843,397,2026-03-10,,,,
6103,Mittenwald/Obb.,47.4287,11.2616,923,2026-03-10,,,,
6105,Ostenfeld (Rendsburg),54.3194,9.8051,15,2026-03-10,5.8,7.4,17.1,1.1
6106,Rechlin,53.3311,12.7149,62,2026-03-10,,,,
6107,Sipplingen (SWN),47.8076,9.1035,703,2026-03-10,,,,
6108,Ruthenstrom,53.7197,9.4192,7,2026-03-10,,,,
6109,Grambow-Schwennenz,53.3837,14.3728,51,2026-03-10,1.9,8.5,16.1,1.3
6129,Sohland/Spree,51.0594,14.4266,291,2026-03-10,0,6.5,16.1,-1.1
6157,Wangerland-Hooksiel,53.6411,8.0809,4,2026-03-10,2.6,7.7,16.3,0.6
6158,Weidenbach-Weiherschneidbach,49.2249,10.6085,454,2026-03-10,0.1,8.6,16.1,1.8
6159,Dörpen,52.9542,7.3197,8,2026-03-10,3.5,9.2,16.8,2.4
6163,Dörnick,54.1654,10.3519,27,2026-03-10,2.7,7.7,16.9,-1
6170,Coschen,52.0192,14.7254,39,2026-03-10,0,7.1,17.6,-0.6
6196,Selb-Spielberg,50.1587,12.0386,611,2026-03-10,,,,
6197,Lügde-Paenbruch,51.8664,9.271,258,2026-03-10,3.4,9.1,17.2,2.9
6199,Steinhagen-Negast,54.2484,13.0419,16,2026-03-10,0.4,6.4,15.8,-2.2
6211,Vogtareuth (Kläranlage),47.955,12.1735,464,2026-03-10,,,,
6217,Saarbrücken-Burbach,49.2406,6.9351,190,2026-03-10,0.8,9.6,16.4,3.3
6253,Brandenburg/Havel,52.4228,12.5667,31,2026-03-10,,,,
6258,Friedrichshafen-Unterraderach,47.6845,9.4409,461,2026-03-10,4,9.6,16.3,2.7
6259,Großerlach-Mannenweiler,49.021,9.6033,524,2026-03-10,5.6,10.9,16.4,6.8
6260,Ingelfingen-Stachenhausen,49.3328,9.704,381,2026-03-10,4,10.6,17.1,5.2
6262,Schwäbisch Gmünd-Weiler,48.7695,9.8737,412,2026-03-10,0,9.7,17.7,2
6263,Singen,47.7738,8.8219,445,2026-03-10,0.5,9.4,17.3,0.6
6264,Brilon-Thülen,51.414,8.65,457,2026-03-10,0.1,10.4,17.2,6.6
6265,Wusterwitz,52.3613,12.3867,36,2026-03-10,0,8.4,16.9,0.5
6266,Huy-Pabstorf,52.0304,10.9626,112,2026-03-10,1.4,10.7,19.4,2.7
6272,"Salzungen, Bad-Gräfen-Nitzendorf",50.8426,10.2518,284,2026-03-10,1.8,8.6,17.1,0.9
6273,Demker,52.5075,11.8551,36,2026-03-10,2.6,8.5,18.2,-0.6
6275,Notzingen,48.6705,9.4627,327,2026-03-10,1.3,9.4,18.8,0.4
6305,Mühlhausen/Thüringen-Görmar,51.2061,10.4978,194,2026-03-10,0.1,7.9,18,-0.9
6310,Karlshagen,54.1049,13.8239,1,2026-03-10,0.5,6.2,15.2,-1.9
6314,Nossen,51.0507,13.3003,306,2026-03-10,0,11.4,15.2,8.5
6336,Lohr/Main-Halsbach,50.0132,9.654,288,2026-03-10,2.6,7.7,16.8,0.5
6337,Lüdinghausen-Brochtrup,51.7663,7.5194,58,2026-03-10,0.9,9.9,17.4,1.7
6344,Runkel-Ennerich,50.394,8.1423,168,2026-03-10,1.9,9.5,16.9,2.9
6346,Maisach-Galgen,48.207,11.2035,531,2026-03-10,0.1,9.8,15.9,3.5
6347,Schonungen-Mainberg,50.0579,10.2972,305,2026-03-10,1.7,9.4,16.8,2.4
7075,Elsendorf-Horneck,48.702,11.8493,429,2026-03-10,1.7,8.8,17,3.2
7105,Siegsdorf-Höll,47.835,12.6548,719,2026-03-10,0,9.9,16,4.9
7106,Bielefeld-Deppendorf,52.0714,8.4565,105,2026-03-10,2.7,9.5,18.7,0.8
7187,Freudenberg/Main-Boxtal,49.7636,9.4063,194,2026-03-10,0.3,9.8,19.3,1.8
7298,Hattstedt,54.5268,9.0425,4,2026-03-10,3.7,6.3,12.9,2
7319,Donauwörth-Osterweiler,48.7374,10.7393,435,2026-03-10,3.8,8.5,16.4,0.6
7321,Olbersleben,51.1507,11.3321,157,2026-03-10,1.2,8,17.8,-0.1
7329,Treuen,50.5467,12.2863,465,2026-03-10,0,9.5,15.7,5.1
7330,Arnsberg-Neheim,51.4633,7.978,159,2026-03-10,3.8,8,18.1,-1.1
7331,Hermaringen-Allewind,48.6099,10.2674,467,2026-03-10,2.5,8.8,17.1,0.4
7341,Offenbach-Wetterpark,50.09,8.7862,119,2026-03-10,0,11.3,19.2,3.5
7343,Deutschneudorf-Brüderwiese,50.62,13.4817,689,2026-03-10,0,5.1,13.7,-1.2
7351,Feldberg/Mecklenburg,53.3176,13.4175,115,2026-03-10,0,7.7,15.5,0.6
7364,Jeßnitz,51.6818,12.3053,74,2026-03-10,0.2,8.4,17.3,1.5
7367,Alfeld,51.9643,9.8072,144,2026-03-10,2.1,8.5,17.7,1.3
7368,Eisenach,51.0007,10.3621,312,2026-03-10,0.2,9.5,17,2.5
7369,Feuchtwangen-Heilbronn,49.1623,10.3661,475,2026-03-10,0.1,8.3,16.2,0.1
7370,Waldmünchen,49.391,12.6838,499,2026-03-10,0,6.2,14.8,-0.6
7373,Borkum-Flugplatz,53.5984,6.7024,3,2026-03-10,2.1,7.1,12.7,3.1
7374,Ahaus,52.0813,6.9409,46,2026-03-10,1.4,9.3,15.6,2.9
7389,Heckelberg,52.7461,13.8427,83,2026-03-10,0.3,8.5,16.6,1.4
7391,Oberzent-Beerfelden-Vogelherd,49.5561,8.9669,443,2026-03-10,,,,
7392,Aubstadt,50.3332,10.4487,304,2026-03-10,,,,
7393,Hoyerswerda,51.4492,14.2533,116,2026-03-10,0,10.5,16.7,3.3
7394,Wunsiedel-Schönbrunn,50.0315,11.9745,622,2026-03-10,0.5,8.9,14.5,4
7395,Gottfrieding,48.6595,12.5388,351,2026-03-10,0,7.9,17.1,1.3
7396,Hoherodskopf/Vogelsberg,50.5084,9.2246,740,2026-03-10,,9.8,,
7403,Leutkirch-Herlazhofen,47.7955,10.0325,672,2026-03-10,2.8,7.9,16.7,-1.2
7410,Neu-Ulrichstein,50.7513,9.0224,350,2026-03-10,0,10.1,16.1,4.2
7412,Neuhütten/Spessart,50.0083,9.4238,340,2026-03-10,0.2,8.9,17.9,-0.4
7416,Birkelbach,51.0112,8.2733,541,2026-03-10,,,,
7419,Langenwetzendorf-Göttendorf,50.661,12.0756,389,2026-03-10,0,10,16.8,2.4
7420,Naumburg/Saale-Kreipitzsch,51.1045,11.7113,246,2026-03-10,0,9.5,16.5,2.8
7424,Piding,47.7724,12.9073,457,2026-03-10,0,7.8,17.3,-0.1
7427,Padenstedt (Pony-Park),54.0188,9.9255,17,2026-03-10,7.8,8.2,17.5,0.7
7428,Veilsdorf,50.4167,10.8156,397,2026-03-10,0.5,7,17.1,-0.9
7431,Oberhaching-Laufzorn,48.013,11.5524,604,2026-03-10,0,8.8,17.4,2.4
7432,Wittingen-Vorhop,52.6423,10.6628,71,2026-03-10,1.3,8.7,18.1,-0.1
10510,Winterbach/Remstal,48.8059,9.5046,244,2026-03-10,,,,
13670,Duisburg-Baerl,51.5088,6.7018,24,2026-03-10,0.1,11.4,17.5,6.3
13674,Waibstadt,49.2943,8.9053,237,2026-03-10,3,10.7,18.6,3.3
13675,Hameln-Hastenbeck,52.0818,9.4077,75,2026-03-10,,,,
13676,Langquaid-Oberschneidhart,48.8608,12.0323,378,2026-03-10,,,,
13693,Gütersloh/Ems,51.9258,8.3111,70,2026-03-10,,,,
13696,Waltrop-Abdinghof,51.5966,7.4048,60,2026-03-10,0.9,9.3,18.4,1.1
13700,Gevelsberg-Oberbröking,51.3329,7.3412,203,2026-03-10,0,10.5,16.8,4.2
13701,Eschwege-Eltmannshausen,51.1945,9.9885,250,2026-03-10,,,,
13711,Krölpa-Rockendorf,50.682,11.515,289,2026-03-10,0.1,9.3,17.6,1.2
13713,Meinerzhagen-Redlendorf,51.0899,7.6289,385,2026-03-10,3.1,9.5,16.2,4.3
13777,Helmstedt-Emmerstedt,52.2467,10.9592,109,2026-03-10,0.3,9.1,18.6,-0.3
13900,"Soden,Bad-Salmünster (Kläranlage)",50.2688,9.358,145,2026-03-10,,,,
13901,Haltern (Wasserwerk),51.7343,7.1998,41,2026-03-10,,,,
13932,Rotthalmünster (Landwirtschaftsamt),48.3617,13.1938,388,2026-03-10,,,,
13952,Arnsberg-Müschede,51.4089,8.0094,278,2026-03-10,,,,
13965,Balingen-Bronnhaupten,48.2639,8.8134,619,2026-03-10,0,9.4,15.8,3.2
14138,Falkenberg (Grenzschichtmessfeld),52.1655,14.1224,73,2026-03-10,,,,
15000,Aachen-Orsbach,50.7983,6.0244,231,2026-03-10,0.9,11.5,15.6,8.9
15044,Neuwied-Feldkirchen-Hüllenberg,50.4517,7.4058,199,2026-03-10,,,,
15120,Haaren,51.5572,8.7019,379,2026-03-10,,,,
15122,Ergersheim-Neuherberg,49.52,10.2854,380,2026-03-10,,,,
15189,Sukow-Levitzow,53.8281,12.5936,12,2026-03-10,,,,
15190,Xanten (Wasserwerk),51.6802,6.4349,18,2026-03-10,,,,
15194,Börßum-Achim,52.0688,10.6245,129,2026-03-10,,,,
15200,Wuppertal,51.2531,7.2157,327,2026-03-10,,,,
15207,Schauenburg-Elgershausen,51.2835,9.359,317,2026-03-10,1.2,9.3,16.9,2.5
15214,Halblech-Bayerniederhofen,47.6248,10.8075,808,2026-03-10,,,,
15444,Ulm-Mähringen,48.4418,9.9216,593,2026-03-10,2.1,8.4,16.1,0.1
15520,Frasdorf-Greimelberg,47.819,12.2956,656,2026-03-10,,,,
15547,Heilbronn/Neckar,49.1259,9.1428,214,2026-03-10,,,,
15555,Kaufbeuren-Oberbeuren,47.8761,10.5849,815,2026-03-10,1.8,9.5,14.5,3.3
15801,Hinterschmiding-Sonndorf,48.8257,13.5922,718,2026-03-10,,,,
15813,Lingen-Baccum,52.5126,7.4131,40,2026-03-10,1.2,10.5,16,6.2
15911,Großpostwitz-Denkwitz,51.1347,14.4344,279,2026-03-10,,,,
15976,Ober-Olm/Bellem,49.9529,8.2107,216,2026-03-10,,,,
15978,Sembach,49.5044,7.8618,316,2026-03-10,,,,
19171,Hasenkrug-Hardebek,54.0039,9.8555,13,2026-03-10,8.4,7.8,17.4,0.2
19172,Wacken,54.0246,9.388,48,2026-03-10,8.6,9,17.2,1.1
19207,Gülzow-Prüzen,53.8178,12.0645,16,2026-03-10,1.8,8.3,16.4,-0.8
19243,Föhr,54.6831,8.4721,8,2026-03-10,,,,
19856,Schönau am Königssee,47.6134,12.9819,625,2026-03-10,0,7.5,16.9,0.3
20098,Seebach (Nationalpark Schwarzwald),48.5651,8.2284,1019,2026-03-10,8.4,7.6,11.8,2.7
